[
  {
    "id": "100101",
    "amphoe_id": "1001",
    "name_th": "พระบรมมหาราชวัง",
    "name_en": "Phra Borom Maha Ratchawang",
    "center": {
      "lat": 13.751147,
      "lng": 100.460277
    },
    "bbox": [
      13.731147340051415,
      100.44027695163928,
      13.771147340051414,
      100.48027695163927
    ]
  },
  {
    "id": "100102",
    "amphoe_id": "1001",
    "name_th": "วังบูรพาภิรมย์",
    "name_en": "Wang Burapha Phirom",
    "center": {
      "lat": 13.793599,
      "lng": 100.52986
    },
    "bbox": [
      13.773598677377587,
      100.50985987157708,
      13.813598677377586,
      100.54985987157707
    ]
  },
  {
    "id": "100103",
    "amphoe_id": "1001",
    "name_th": "วัดราชบพิธ",
    "name_en": "Wat Ratchabophit",
    "center": {
      "lat": 13.78331,
      "lng": 100.459788
    },
    "bbox": [
      13.763310179154002,
      100.43978815882325,
      13.803310179154002,
      100.47978815882324
    ]
  },
  {
    "id": "100104",
    "amphoe_id": "1001",
    "name_th": "สำราญราษฎร์",
    "name_en": "Samran Rat",
    "center": {
      "lat": 13.742305,
      "lng": 100.500627
    },
    "bbox": [
      13.722305331696083,
      100.48062710881699,
      13.762305331696082,
      100.52062710881698
    ]
  },
  {
    "id": "100105",
    "amphoe_id": "1001",
    "name_th": "ศาลเจ้าพ่อเสือ",
    "name_en": "San Chao Pho Suea",
    "center": {
      "lat": 13.77099,
      "lng": 100.467339
    },
    "bbox": [
      13.750989822159859,
      100.44733924655232,
      13.790989822159858,
      100.48733924655231
    ]
  },
  {
    "id": "100106",
    "amphoe_id": "1001",
    "name_th": "เสาชิงช้า",
    "name_en": "Sao Chingcha",
    "center": {
      "lat": 13.729466,
      "lng": 100.475493
    },
    "bbox": [
      13.709465541121025,
      100.45549296430505,
      13.749465541121024,
      100.49549296430504
    ]
  },
  {
    "id": "100107",
    "amphoe_id": "1001",
    "name_th": "บวรนิเวศ",
    "name_en": "Bowon Niwet",
    "center": {
      "lat": 13.785578,
      "lng": 100.513846
    },
    "bbox": [
      13.765577858223313,
      100.49384635423154,
      13.805577858223312,
      100.53384635423153
    ]
  },
  {
    "id": "100108",
    "amphoe_id": "1001",
    "name_th": "ตลาดยอด",
    "name_en": "Talat Yot",
    "center": {
      "lat": 13.767984,
      "lng": 100.513776
    },
    "bbox": [
      13.747984393460683,
      100.49377603092725,
      13.787984393460682,
      100.53377603092724
    ]
  },
  {
    "id": "100109",
    "amphoe_id": "1001",
    "name_th": "ชนะสงคราม",
    "name_en": "Chana Songkhram",
    "center": {
      "lat": 13.772685,
      "lng": 100.524089
    },
    "bbox": [
      13.752684740637758,
      100.50408864252908,
      13.792684740637757,
      100.54408864252908
    ]
  },
  {
    "id": "100110",
    "amphoe_id": "1001",
    "name_th": "บ้านพานถม",
    "name_en": "Ban Phan Thom",
    "center": {
      "lat": 13.737075,
      "lng": 100.46563
    },
    "bbox": [
      13.717074575242114,
      100.44562958081193,
      13.757074575242113,
      100.48562958081192
    ]
  },
  {
    "id": "100111",
    "amphoe_id": "1001",
    "name_th": "บางขุนพรหม",
    "name_en": "Bang Khun Phrom",
    "center": {
      "lat": 13.729304,
      "lng": 100.452272
    },
    "bbox": [
      13.709303743615987,
      100.43227226892407,
      13.749303743615986,
      100.47227226892406
    ]
  },
  {
    "id": "100112",
    "amphoe_id": "1001",
    "name_th": "วัดสามพระยา",
    "name_en": "Wat Sam Phraya",
    "center": {
      "lat": 13.773714,
      "lng": 100.49307
    },
    "bbox": [
      13.753713949819454,
      100.47307008542249,
      13.793713949819454,
      100.51307008542248
    ]
  },
  {
    "id": "100201",
    "amphoe_id": "1002",
    "name_th": "ดุสิต",
    "name_en": "Dusit",
    "center": {
      "lat": 13.709491,
      "lng": 100.465422
    },
    "bbox": [
      13.689491494617638,
      100.44542163030567,
      13.729491494617637,
      100.48542163030567
    ]
  },
  {
    "id": "100202",
    "amphoe_id": "1002",
    "name_th": "วชิรพยาบาล",
    "name_en": "Wachira Phayaban",
    "center": {
      "lat": 13.753457,
      "lng": 100.457375
    },
    "bbox": [
      13.733456744405887,
      100.43737460536192,
      13.773456744405886,
      100.47737460536192
    ]
  },
  {
    "id": "100203",
    "amphoe_id": "1002",
    "name_th": "สวนจิตรลดา",
    "name_en": "Suan Chitlada",
    "center": {
      "lat": 13.763705,
      "lng": 100.469047
    },
    "bbox": [
      13.743705422568567,
      100.44904690632895,
      13.783705422568566,
      100.48904690632894
    ]
  },
  {
    "id": "100204",
    "amphoe_id": "1002",
    "name_th": "สี่แยกมหานาค",
    "name_en": "Si Yaek Mahanak",
    "center": {
      "lat": 13.795642,
      "lng": 100.477545
    },
    "bbox": [
      13.775641647706456,
      100.45754453888082,
      13.815641647706455,
      100.49754453888082
    ]
  },
  {
    "id": "100206",
    "amphoe_id": "1002",
    "name_th": "ถนนนครไชยศรี",
    "name_en": "Thanon Nakhon Chai Si",
    "center": {
      "lat": 13.738406,
      "lng": 100.498222
    },
    "bbox": [
      13.718406303817147,
      100.47822248464766,
      13.758406303817146,
      100.51822248464765
    ]
  },
  {
    "id": "100301",
    "amphoe_id": "1003",
    "name_th": "กระทุ่มราย",
    "name_en": "Krathum Rai",
    "center": {
      "lat": 13.789818,
      "lng": 100.502191
    },
    "bbox": [
      13.769817837538486,
      100.4821909757795,
      13.809817837538485,
      100.5221909757795
    ]
  },
  {
    "id": "100302",
    "amphoe_id": "1003",
    "name_th": "หนองจอก",
    "name_en": "Nong Chok",
    "center": {
      "lat": 13.789656,
      "lng": 100.529584
    },
    "bbox": [
      13.769655817377103,
      100.5095841678663,
      13.809655817377102,
      100.54958416786629
    ]
  },
  {
    "id": "100303",
    "amphoe_id": "1003",
    "name_th": "คลองสิบ",
    "name_en": "Khlong Sip",
    "center": {
      "lat": 13.770569,
      "lng": 100.463167
    },
    "bbox": [
      13.750568907075865,
      100.44316673489008,
      13.790568907075864,
      100.48316673489008
    ]
  },
  {
    "id": "100304",
    "amphoe_id": "1003",
    "name_th": "คลองสิบสอง",
    "name_en": "Khlong Sip Song",
    "center": {
      "lat": 13.712292,
      "lng": 100.527967
    },
    "bbox": [
      13.692292243280074,
      100.50796662020251,
      13.732292243280073,
      100.5479666202025
    ]
  },
  {
    "id": "100305",
    "amphoe_id": "1003",
    "name_th": "โคกแฝด",
    "name_en": "Khok Faet",
    "center": {
      "lat": 13.752498,
      "lng": 100.464816
    },
    "bbox": [
      13.732498425748092,
      100.44481590889683,
      13.772498425748092,
      100.48481590889682
    ]
  },
  {
    "id": "100306",
    "amphoe_id": "1003",
    "name_th": "คู้ฝั่งเหนือ",
    "name_en": "Khu Fang Nuea",
    "center": {
      "lat": 13.805332,
      "lng": 100.496347
    },
    "bbox": [
      13.785331943675638,
      100.47634669001849,
      13.825331943675637,
      100.51634669001848
    ]
  },
  {
    "id": "100307",
    "amphoe_id": "1003",
    "name_th": "ลำผักชี",
    "name_en": "Lam Phak Chi",
    "center": {
      "lat": 13.760105,
      "lng": 100.515551
    },
    "bbox": [
      13.740105251201136,
      100.49555063115086,
      13.780105251201135,
      100.53555063115085
    ]
  },
  {
    "id": "100308",
    "amphoe_id": "1003",
    "name_th": "ลำต้อยติ่ง",
    "name_en": "Lam Toiting",
    "center": {
      "lat": 13.725133,
      "lng": 100.520597
    },
    "bbox": [
      13.705132779951452,
      100.50059733004932,
      13.74513277995145,
      100.54059733004931
    ]
  },
  {
    "id": "100401",
    "amphoe_id": "1004",
    "name_th": "มหาพฤฒาราม",
    "name_en": "Maha Phruettharam",
    "center": {
      "lat": 13.765021,
      "lng": 100.499983
    },
    "bbox": [
      13.74502135192689,
      100.47998343695774,
      13.78502135192689,
      100.51998343695773
    ]
  },
  {
    "id": "100402",
    "amphoe_id": "1004",
    "name_th": "สีลม",
    "name_en": "Si Lom",
    "center": {
      "lat": 13.799177,
      "lng": 100.54384
    },
    "bbox": [
      13.779177466274843,
      100.52383987941988,
      13.819177466274843,
      100.56383987941987
    ]
  },
  {
    "id": "100403",
    "amphoe_id": "1004",
    "name_th": "สุริยวงศ์",
    "name_en": "Suriyawong",
    "center": {
      "lat": 13.784527,
      "lng": 100.490791
    },
    "bbox": [
      13.764527340540372,
      100.47079122745639,
      13.804527340540371,
      100.51079122745638
    ]
  },
  {
    "id": "100404",
    "amphoe_id": "1004",
    "name_th": "บางรัก",
    "name_en": "Bang Rak",
    "center": {
      "lat": 13.782686,
      "lng": 100.457553
    },
    "bbox": [
      13.762686124352909,
      100.43755250591978,
      13.802686124352908,
      100.47755250591977
    ]
  },
  {
    "id": "100405",
    "amphoe_id": "1004",
    "name_th": "สี่พระยา",
    "name_en": "Si Phraya",
    "center": {
      "lat": 13.750287,
      "lng": 100.461117
    },
    "bbox": [
      13.730287189385114,
      100.44111686835544,
      13.770287189385114,
      100.48111686835543
    ]
  },
  {
    "id": "100502",
    "amphoe_id": "1005",
    "name_th": "อนุสาวรีย์",
    "name_en": "Anusawari",
    "center": {
      "lat": 13.709617,
      "lng": 100.545148
    },
    "bbox": [
      13.689616984320223,
      100.52514800798379,
      13.729616984320222,
      100.56514800798378
    ]
  },
  {
    "id": "100508",
    "amphoe_id": "1005",
    "name_th": "ท่าแร้ง",
    "name_en": "Tha Raeng",
    "center": {
      "lat": 13.718918,
      "lng": 100.45356
    },
    "bbox": [
      13.698917751614168,
      100.4335595139395,
      13.738917751614167,
      100.47355951393949
    ]
  },
  {
    "id": "100601",
    "amphoe_id": "1006",
    "name_th": "คลองจั่น",
    "name_en": "Khlong Chan",
    "center": {
      "lat": 13.770292,
      "lng": 100.457417
    },
    "bbox": [
      13.750292433563216,
      100.43741706670698,
      13.790292433563215,
      100.47741706670698
    ]
  },
  {
    "id": "100608",
    "amphoe_id": "1006",
    "name_th": "หัวหมาก",
    "name_en": "Hua Mak",
    "center": {
      "lat": 13.772725,
      "lng": 100.483922
    },
    "bbox": [
      13.752724823830947,
      100.46392242409294,
      13.792724823830946,
      100.50392242409293
    ]
  },
  {
    "id": "100701",
    "amphoe_id": "1007",
    "name_th": "รองเมือง",
    "name_en": "Rong Mueang",
    "center": {
      "lat": 13.715277,
      "lng": 100.504935
    },
    "bbox": [
      13.695276622583727,
      100.48493488738048,
      13.735276622583726,
      100.52493488738047
    ]
  },
  {
    "id": "100702",
    "amphoe_id": "1007",
    "name_th": "วังใหม่",
    "name_en": "Wang Mai",
    "center": {
      "lat": 13.758595,
      "lng": 100.550197
    },
    "bbox": [
      13.738594964414911,
      100.53019728737465,
      13.77859496441491,
      100.57019728737464
    ]
  },
  {
    "id": "100703",
    "amphoe_id": "1007",
    "name_th": "ปทุมวัน",
    "name_en": "Pathum Wan",
    "center": {
      "lat": 13.724382,
      "lng": 100.542326
    },
    "bbox": [
      13.704382254259079,
      100.52232589141256,
      13.744382254259078,
      100.56232589141256
    ]
  },
  {
    "id": "100704",
    "amphoe_id": "1007",
    "name_th": "ลุมพินี",
    "name_en": "Lumphini",
    "center": {
      "lat": 13.738659,
      "lng": 100.519448
    },
    "bbox": [
      13.718658963017491,
      100.49944767061486,
      13.75865896301749,
      100.53944767061485
    ]
  },
  {
    "id": "100801",
    "amphoe_id": "1008",
    "name_th": "ป้อมปราบ",
    "name_en": "Pom Prap",
    "center": {
      "lat": 13.718705,
      "lng": 100.55121
    },
    "bbox": [
      13.698705200075247,
      100.53121021889199,
      13.738705200075247,
      100.57121021889198
    ]
  },
  {
    "id": "100802",
    "amphoe_id": "1008",
    "name_th": "วัดเทพศิรินทร์",
    "name_en": "Wat Thep Sirin",
    "center": {
      "lat": 13.736604,
      "lng": 100.528765
    },
    "bbox": [
      13.716603924999898,
      100.50876474902752,
      13.756603924999897,
      100.54876474902751
    ]
  },
  {
    "id": "100803",
    "amphoe_id": "1008",
    "name_th": "คลองมหานาค",
    "name_en": "Khlong Maha Nak",
    "center": {
      "lat": 13.77689,
      "lng": 100.517502
    },
    "bbox": [
      13.756889914163898,
      100.49750248600006,
      13.796889914163897,
      100.53750248600005
    ]
  },
  {
    "id": "100804",
    "amphoe_id": "1008",
    "name_th": "บ้านบาตร",
    "name_en": "Ban Bat",
    "center": {
      "lat": 13.731532,
      "lng": 100.54776
    },
    "bbox": [
      13.71153163673717,
      100.52775975557451,
      13.75153163673717,
      100.5677597555745
    ]
  },
  {
    "id": "100805",
    "amphoe_id": "1008",
    "name_th": "วัดโสมนัส",
    "name_en": "Wat Sommanat",
    "center": {
      "lat": 13.761063,
      "lng": 100.543911
    },
    "bbox": [
      13.741062767661294,
      100.52391116864305,
      13.781062767661293,
      100.56391116864305
    ]
  },
  {
    "id": "100905",
    "amphoe_id": "1009",
    "name_th": "บางจาก",
    "name_en": "Bang Chak",
    "center": {
      "lat": 13.733731,
      "lng": 100.526585
    },
    "bbox": [
      13.713731151424442,
      100.50658467470336,
      13.753731151424441,
      100.54658467470335
    ]
  },
  {
    "id": "100910",
    "amphoe_id": "1009",
    "name_th": "พระโขนงใต้",
    "name_en": "Phra Khanong Tai",
    "center": {
      "lat": 13.788474,
      "lng": 100.495322
    },
    "bbox": [
      13.768473866427707,
      100.47532229333257,
      13.808473866427706,
      100.51532229333256
    ]
  },
  {
    "id": "101001",
    "amphoe_id": "1010",
    "name_th": "มีนบุรี",
    "name_en": "Min Buri",
    "center": {
      "lat": 13.715749,
      "lng": 100.547538
    },
    "bbox": [
      13.695748878323094,
      100.52753826239068,
      13.735748878323093,
      100.56753826239067
    ]
  },
  {
    "id": "101002",
    "amphoe_id": "1010",
    "name_th": "แสนแสบ",
    "name_en": "Saen Saep",
    "center": {
      "lat": 13.794283,
      "lng": 100.544194
    },
    "bbox": [
      13.774283225728587,
      100.52419388607392,
      13.814283225728586,
      100.56419388607391
    ]
  },
  {
    "id": "101101",
    "amphoe_id": "1011",
    "name_th": "ลาดกระบัง",
    "name_en": "Lat Krabang",
    "center": {
      "lat": 13.717223,
      "lng": 100.550297
    },
    "bbox": [
      13.697222925986692,
      100.53029656272494,
      13.737222925986691,
      100.57029656272493
    ]
  },
  {
    "id": "101102",
    "amphoe_id": "1011",
    "name_th": "คลองสองต้นนุ่น",
    "name_en": "Khlong Song Ton Nun",
    "center": {
      "lat": 13.750071,
      "lng": 100.542795
    },
    "bbox": [
      13.7300705160579,
      100.52279454758576,
      13.7700705160579,
      100.56279454758575
    ]
  },
  {
    "id": "101103",
    "amphoe_id": "1011",
    "name_th": "คลองสามประเวศ",
    "name_en": "Khlong Sam Prawet",
    "center": {
      "lat": 13.762982,
      "lng": 100.518305
    },
    "bbox": [
      13.742982176526182,
      100.49830533431734,
      13.78298217652618,
      100.53830533431733
    ]
  },
  {
    "id": "101104",
    "amphoe_id": "1011",
    "name_th": "ลำปลาทิว",
    "name_en": "Lam Pla Thio",
    "center": {
      "lat": 13.748262,
      "lng": 100.532673
    },
    "bbox": [
      13.728262489083468,
      100.51267322435409,
      13.768262489083467,
      100.55267322435408
    ]
  },
  {
    "id": "101105",
    "amphoe_id": "1011",
    "name_th": "ทับยาว",
    "name_en": "Thap Yao",
    "center": {
      "lat": 13.745326,
      "lng": 100.496426
    },
    "bbox": [
      13.72532568613181,
      100.47642618590635,
      13.76532568613181,
      100.51642618590634
    ]
  },
  {
    "id": "101106",
    "amphoe_id": "1011",
    "name_th": "ขุมทอง",
    "name_en": "Khum Thong",
    "center": {
      "lat": 13.793051,
      "lng": 100.534125
    },
    "bbox": [
      13.77305118961231,
      100.51412479957168,
      13.81305118961231,
      100.55412479957167
    ]
  },
  {
    "id": "101203",
    "amphoe_id": "1012",
    "name_th": "ช่องนนทรี",
    "name_en": "Chong Nonsi",
    "center": {
      "lat": 13.746296,
      "lng": 100.501248
    },
    "bbox": [
      13.726296112354373,
      100.48124791941221,
      13.766296112354372,
      100.5212479194122
    ]
  },
  {
    "id": "101204",
    "amphoe_id": "1012",
    "name_th": "บางโพงพาง",
    "name_en": "Bang Phongphang",
    "center": {
      "lat": 13.761656,
      "lng": 100.471877
    },
    "bbox": [
      13.741655978751028,
      100.45187667216564,
      13.781655978751028,
      100.49187667216563
    ]
  },
  {
    "id": "101301",
    "amphoe_id": "1013",
    "name_th": "จักรวรรดิ",
    "name_en": "Chakkrawat",
    "center": {
      "lat": 13.742861,
      "lng": 100.504638
    },
    "bbox": [
      13.722861257295284,
      100.48463780872464,
      13.762861257295283,
      100.52463780872463
    ]
  },
  {
    "id": "101302",
    "amphoe_id": "1013",
    "name_th": "สัมพันธวงศ์",
    "name_en": "Samphanthawong",
    "center": {
      "lat": 13.764756,
      "lng": 100.484844
    },
    "bbox": [
      13.744756079365162,
      100.46484376396411,
      13.784756079365161,
      100.5048437639641
    ]
  },
  {
    "id": "101303",
    "amphoe_id": "1013",
    "name_th": "ตลาดน้อย",
    "name_en": "Talat Noi",
    "center": {
      "lat": 13.749453,
      "lng": 100.549764
    },
    "bbox": [
      13.729452725789127,
      100.52976357960577,
      13.769452725789126,
      100.56976357960576
    ]
  },
  {
    "id": "101401",
    "amphoe_id": "1014",
    "name_th": "สามเสนใน",
    "name_en": "Sam Sen Nai",
    "center": {
      "lat": 13.707885,
      "lng": 100.486978
    },
    "bbox": [
      13.687884897171854,
      100.46697752793655,
      13.727884897171853,
      100.50697752793654
    ]
  },
  {
    "id": "101406",
    "amphoe_id": "1014",
    "name_th": "พญาไท",
    "name_en": "Phaya Thai",
    "center": {
      "lat": 13.735645,
      "lng": 100.502345
    },
    "bbox": [
      13.715644758567075,
      100.48234479156781,
      13.755644758567074,
      100.5223447915678
    ]
  },
  {
    "id": "101501",
    "amphoe_id": "1015",
    "name_th": "วัดกัลยาณ์",
    "name_en": "Wat Kanlaya",
    "center": {
      "lat": 13.790349,
      "lng": 100.48663
    },
    "bbox": [
      13.770349038025161,
      100.4666295323003,
      13.81034903802516,
      100.5066295323003
    ]
  },
  {
    "id": "101502",
    "amphoe_id": "1015",
    "name_th": "หิรัญรูจี",
    "name_en": "Hiran Ruchi",
    "center": {
      "lat": 13.731292,
      "lng": 100.519783
    },
    "bbox": [
      13.711292229487997,
      100.4997829837126,
      13.751292229487996,
      100.5397829837126
    ]
  },
  {
    "id": "101503",
    "amphoe_id": "1015",
    "name_th": "บางยี่เรือ",
    "name_en": "Bang Yi Ruea",
    "center": {
      "lat": 13.760032,
      "lng": 100.484447
    },
    "bbox": [
      13.740032480078725,
      100.46444709989562,
      13.780032480078724,
      100.50444709989561
    ]
  },
  {
    "id": "101504",
    "amphoe_id": "1015",
    "name_th": "บุคคโล",
    "name_en": "Bukkhalo",
    "center": {
      "lat": 13.76852,
      "lng": 100.532
    },
    "bbox": [
      13.748520240873122,
      100.51199962412069,
      13.78852024087312,
      100.55199962412068
    ]
  },
  {
    "id": "101505",
    "amphoe_id": "1015",
    "name_th": "ตลาดพลู",
    "name_en": "Talat Phlu",
    "center": {
      "lat": 13.760261,
      "lng": 100.545401
    },
    "bbox": [
      13.740260952770168,
      100.52540077281488,
      13.780260952770167,
      100.56540077281487
    ]
  },
  {
    "id": "101506",
    "amphoe_id": "1015",
    "name_th": "ดาวคะนอง",
    "name_en": "Dao Khanong",
    "center": {
      "lat": 13.707085,
      "lng": 100.468401
    },
    "bbox": [
      13.68708459308724,
      100.44840081295057,
      13.72708459308724,
      100.48840081295056
    ]
  },
  {
    "id": "101507",
    "amphoe_id": "1015",
    "name_th": "สำเหร่",
    "name_en": "Samre",
    "center": {
      "lat": 13.717103,
      "lng": 100.453007
    },
    "bbox": [
      13.697103402592615,
      100.43300729873148,
      13.737103402592615,
      100.47300729873147
    ]
  },
  {
    "id": "101601",
    "amphoe_id": "1016",
    "name_th": "วัดอรุณ",
    "name_en": "Wat Arun",
    "center": {
      "lat": 13.736473,
      "lng": 100.496994
    },
    "bbox": [
      13.716472556405934,
      100.4769940858387,
      13.756472556405933,
      100.51699408583869
    ]
  },
  {
    "id": "101602",
    "amphoe_id": "1016",
    "name_th": "วัดท่าพระ",
    "name_en": "Wat Tha Phra",
    "center": {
      "lat": 13.726258,
      "lng": 100.529044
    },
    "bbox": [
      13.706257724402905,
      100.50904360419224,
      13.746257724402904,
      100.54904360419224
    ]
  },
  {
    "id": "101701",
    "amphoe_id": "1017",
    "name_th": "ห้วยขวาง",
    "name_en": "Huai Khwang",
    "center": {
      "lat": 13.796074,
      "lng": 100.533826
    },
    "bbox": [
      13.776073959240998,
      100.51382634122716,
      13.816073959240997,
      100.55382634122715
    ]
  },
  {
    "id": "101702",
    "amphoe_id": "1017",
    "name_th": "บางกะปิ",
    "name_en": "Bang Kapi",
    "center": {
      "lat": 13.797108,
      "lng": 100.482215
    },
    "bbox": [
      13.777108496129793,
      100.46221493894288,
      13.817108496129793,
      100.50221493894287
    ]
  },
  {
    "id": "101704",
    "amphoe_id": "1017",
    "name_th": "สามเสนนอก",
    "name_en": "Sam Sen Nok",
    "center": {
      "lat": 13.719092,
      "lng": 100.518853
    },
    "bbox": [
      13.69909239036253,
      100.49885314700899,
      13.73909239036253,
      100.53885314700898
    ]
  },
  {
    "id": "101801",
    "amphoe_id": "1018",
    "name_th": "สมเด็จเจ้าพระยา",
    "name_en": "Somdet Chao Phraya",
    "center": {
      "lat": 13.773949,
      "lng": 100.512978
    },
    "bbox": [
      13.7539488851713,
      100.49297763343732,
      13.793948885171298,
      100.53297763343731
    ]
  },
  {
    "id": "101802",
    "amphoe_id": "1018",
    "name_th": "คลองสาน",
    "name_en": "Khlong San",
    "center": {
      "lat": 13.720349,
      "lng": 100.524378
    },
    "bbox": [
      13.700348869457846,
      100.50437804153847,
      13.740348869457845,
      100.54437804153847
    ]
  },
  {
    "id": "101803",
    "amphoe_id": "1018",
    "name_th": "บางลำภูล่าง",
    "name_en": "Bang Lamphu Lang",
    "center": {
      "lat": 13.770084,
      "lng": 100.47701
    },
    "bbox": [
      13.750084116083537,
      100.45700993113783,
      13.790084116083536,
      100.49700993113782
    ]
  },
  {
    "id": "101804",
    "amphoe_id": "1018",
    "name_th": "คลองต้นไทร",
    "name_en": "Khlong Ton Sai",
    "center": {
      "lat": 13.780061,
      "lng": 100.476157
    },
    "bbox": [
      13.76006124644855,
      100.45615678015623,
      13.80006124644855,
      100.49615678015623
    ]
  },
  {
    "id": "101901",
    "amphoe_id": "1019",
    "name_th": "คลองชักพระ",
    "name_en": "Khlong Chak Phra",
    "center": {
      "lat": 13.801585,
      "lng": 100.539357
    },
    "bbox": [
      13.781584633474687,
      100.51935698460821,
      13.821584633474686,
      100.5593569846082
    ]
  },
  {
    "id": "101902",
    "amphoe_id": "1019",
    "name_th": "ตลิ่งชัน",
    "name_en": "Taling Chan",
    "center": {
      "lat": 13.736764,
      "lng": 100.471415
    },
    "bbox": [
      13.716763533315975,
      100.4514145168152,
      13.756763533315974,
      100.4914145168152
    ]
  },
  {
    "id": "101903",
    "amphoe_id": "1019",
    "name_th": "ฉิมพลี",
    "name_en": "Chimphli",
    "center": {
      "lat": 13.780622,
      "lng": 100.538967
    },
    "bbox": [
      13.760621991328533,
      100.5189668063746,
      13.800621991328532,
      100.5589668063746
    ]
  },
  {
    "id": "101904",
    "amphoe_id": "1019",
    "name_th": "บางพรม",
    "name_en": "Bang Phrom",
    "center": {
      "lat": 13.802167,
      "lng": 100.475157
    },
    "bbox": [
      13.782167241939868,
      100.45515654507373,
      13.822167241939868,
      100.49515654507373
    ]
  },
  {
    "id": "101905",
    "amphoe_id": "1019",
    "name_th": "บางระมาด",
    "name_en": "Bang Ramat",
    "center": {
      "lat": 13.742323,
      "lng": 100.492729
    },
    "bbox": [
      13.722322973750941,
      100.47272915368734,
      13.76232297375094,
      100.51272915368733
    ]
  },
  {
    "id": "101907",
    "amphoe_id": "1019",
    "name_th": "บางเชือกหนัง",
    "name_en": "Bang Chueak Nang",
    "center": {
      "lat": 13.777978,
      "lng": 100.507691
    },
    "bbox": [
      13.757977606673967,
      100.48769146672764,
      13.797977606673966,
      100.52769146672763
    ]
  },
  {
    "id": "102004",
    "amphoe_id": "1020",
    "name_th": "ศิริราช",
    "name_en": "Sirirat",
    "center": {
      "lat": 13.724055,
      "lng": 100.455146
    },
    "bbox": [
      13.704055120119044,
      100.43514568325404,
      13.744055120119043,
      100.47514568325403
    ]
  },
  {
    "id": "102005",
    "amphoe_id": "1020",
    "name_th": "บ้านช่างหล่อ",
    "name_en": "Ban Chang Lo",
    "center": {
      "lat": 13.71106,
      "lng": 100.530184
    },
    "bbox": [
      13.691059860693436,
      100.5101842572577,
      13.731059860693435,
      100.5501842572577
    ]
  },
  {
    "id": "102006",
    "amphoe_id": "1020",
    "name_th": "บางขุนนนท์",
    "name_en": "Bang Khun Non",
    "center": {
      "lat": 13.747139,
      "lng": 100.464449
    },
    "bbox": [
      13.727139423872597,
      100.444449414961,
      13.767139423872596,
      100.48444941496099
    ]
  },
  {
    "id": "102007",
    "amphoe_id": "1020",
    "name_th": "บางขุนศรี",
    "name_en": "Bang Khun Si",
    "center": {
      "lat": 13.749051,
      "lng": 100.470135
    },
    "bbox": [
      13.729051295183934,
      100.4501349225629,
      13.769051295183933,
      100.49013492256289
    ]
  },
  {
    "id": "102009",
    "amphoe_id": "1020",
    "name_th": "อรุณอมรินทร์",
    "name_en": "Arun Ammarin",
    "center": {
      "lat": 13.762003,
      "lng": 100.473494
    },
    "bbox": [
      13.742002672091578,
      100.45349396927749,
      13.782002672091577,
      100.49349396927748
    ]
  },
  {
    "id": "102105",
    "amphoe_id": "1021",
    "name_th": "ท่าข้าม",
    "name_en": "Tha Kham",
    "center": {
      "lat": 13.761329,
      "lng": 100.515771
    },
    "bbox": [
      13.741329067476999,
      100.4957708339963,
      13.781329067476998,
      100.5357708339963
    ]
  },
  {
    "id": "102107",
    "amphoe_id": "1021",
    "name_th": "แสมดำ",
    "name_en": "Samae Dam",
    "center": {
      "lat": 13.766783,
      "lng": 100.514984
    },
    "bbox": [
      13.746782533792354,
      100.49498381619138,
      13.786782533792353,
      100.53498381619137
    ]
  },
  {
    "id": "102201",
    "amphoe_id": "1022",
    "name_th": "บางหว้า",
    "name_en": "Bang Wa",
    "center": {
      "lat": 13.802308,
      "lng": 100.499769
    },
    "bbox": [
      13.782307793182678,
      100.47976851090824,
      13.822307793182677,
      100.51976851090824
    ]
  },
  {
    "id": "102202",
    "amphoe_id": "1022",
    "name_th": "บางด้วน",
    "name_en": "Bang Duan",
    "center": {
      "lat": 13.736331,
      "lng": 100.526519
    },
    "bbox": [
      13.716330707775228,
      100.50651882497418,
      13.756330707775227,
      100.54651882497417
    ]
  },
  {
    "id": "102206",
    "amphoe_id": "1022",
    "name_th": "บางจาก",
    "name_en": "Bang Chak",
    "center": {
      "lat": 13.74488,
      "lng": 100.465453
    },
    "bbox": [
      13.72487987955176,
      100.44545301377661,
      13.76487987955176,
      100.4854530137766
    ]
  },
  {
    "id": "102207",
    "amphoe_id": "1022",
    "name_th": "บางแวก",
    "name_en": "Bang Waek",
    "center": {
      "lat": 13.753171,
      "lng": 100.534629
    },
    "bbox": [
      13.733171479478536,
      100.51462884182405,
      13.773171479478535,
      100.55462884182404
    ]
  },
  {
    "id": "102208",
    "amphoe_id": "1022",
    "name_th": "คลองขวาง",
    "name_en": "Khlong Khwang",
    "center": {
      "lat": 13.718828,
      "lng": 100.471925
    },
    "bbox": [
      13.698828127016204,
      100.45192484555513,
      13.738828127016204,
      100.49192484555512
    ]
  },
  {
    "id": "102209",
    "amphoe_id": "1022",
    "name_th": "ปากคลองภาษีเจริญ",
    "name_en": "Pak Khlong Phasi Charoen",
    "center": {
      "lat": 13.783308,
      "lng": 100.489678
    },
    "bbox": [
      13.763308033514836,
      100.46967778317119,
      13.803308033514835,
      100.50967778317118
    ]
  },
  {
    "id": "102210",
    "amphoe_id": "1022",
    "name_th": "คูหาสวรรค์",
    "name_en": "Khuha Sawan",
    "center": {
      "lat": 13.800949,
      "lng": 100.476637
    },
    "bbox": [
      13.78094947777757,
      100.45663734198182,
      13.82094947777757,
      100.49663734198181
    ]
  },
  {
    "id": "102302",
    "amphoe_id": "1023",
    "name_th": "หนองแขม",
    "name_en": "Nong Khaem",
    "center": {
      "lat": 13.743034,
      "lng": 100.460608
    },
    "bbox": [
      13.723034083903062,
      100.44060789908805,
      13.763034083903062,
      100.48060789908804
    ]
  },
  {
    "id": "102303",
    "amphoe_id": "1023",
    "name_th": "หนองค้างพลู",
    "name_en": "Nong Khang Phlu",
    "center": {
      "lat": 13.775996,
      "lng": 100.510398
    },
    "bbox": [
      13.755996239220586,
      100.49039807342945,
      13.795996239220585,
      100.53039807342944
    ]
  },
  {
    "id": "102401",
    "amphoe_id": "1024",
    "name_th": "ราษฎร์บูรณะ",
    "name_en": "Rat Burana",
    "center": {
      "lat": 13.806127,
      "lng": 100.456128
    },
    "bbox": [
      13.786127438613418,
      100.43612767841113,
      13.826127438613417,
      100.47612767841112
    ]
  },
  {
    "id": "102402",
    "amphoe_id": "1024",
    "name_th": "บางปะกอก",
    "name_en": "Bang Pa Kok",
    "center": {
      "lat": 13.798382,
      "lng": 100.494509
    },
    "bbox": [
      13.778381928610258,
      100.4745092666755,
      13.818381928610258,
      100.51450926667549
    ]
  },
  {
    "id": "102501",
    "amphoe_id": "1025",
    "name_th": "บางพลัด",
    "name_en": "Bang Phlat",
    "center": {
      "lat": 13.782777,
      "lng": 100.496634
    },
    "bbox": [
      13.762776885590545,
      100.47663367119084,
      13.802776885590545,
      100.51663367119083
    ]
  },
  {
    "id": "102502",
    "amphoe_id": "1025",
    "name_th": "บางอ้อ",
    "name_en": "Bang O",
    "center": {
      "lat": 13.755536,
      "lng": 100.523782
    },
    "bbox": [
      13.735535778207606,
      100.5037823108642,
      13.775535778207605,
      100.54378231086419
    ]
  },
  {
    "id": "102503",
    "amphoe_id": "1025",
    "name_th": "บางบำหรุ",
    "name_en": "Bang Bamru",
    "center": {
      "lat": 13.711692,
      "lng": 100.492557
    },
    "bbox": [
      13.691691733110632,
      100.47255725915133,
      13.731691733110631,
      100.51255725915132
    ]
  },
  {
    "id": "102504",
    "amphoe_id": "1025",
    "name_th": "บางยี่ขัน",
    "name_en": "Bang Yi Khan",
    "center": {
      "lat": 13.754931,
      "lng": 100.467654
    },
    "bbox": [
      13.734931182478045,
      100.44765397276291,
      13.774931182478044,
      100.4876539727629
    ]
  },
  {
    "id": "102601",
    "amphoe_id": "1026",
    "name_th": "ดินแดง",
    "name_en": "Din Daeng",
    "center": {
      "lat": 13.721591,
      "lng": 100.46928
    },
    "bbox": [
      13.701591232408859,
      100.44927961583174,
      13.741591232408858,
      100.48927961583173
    ]
  },
  {
    "id": "102602",
    "amphoe_id": "1026",
    "name_th": "รัชดาภิเษก",
    "name_en": "Ratchadaphisek",
    "center": {
      "lat": 13.748129,
      "lng": 100.499612
    },
    "bbox": [
      13.728128778725814,
      100.47961234395228,
      13.768128778725814,
      100.51961234395228
    ]
  },
  {
    "id": "102701",
    "amphoe_id": "1027",
    "name_th": "คลองกุ่ม",
    "name_en": "Khlong Kum",
    "center": {
      "lat": 13.783355,
      "lng": 100.547606
    },
    "bbox": [
      13.763355228407587,
      100.52760612097343,
      13.803355228407586,
      100.56760612097342
    ]
  },
  {
    "id": "102704",
    "amphoe_id": "1027",
    "name_th": "นวมินทร์",
    "name_en": "Nawamin",
    "center": {
      "lat": 13.771691,
      "lng": 100.539497
    },
    "bbox": [
      13.751690786606927,
      100.51949660241587,
      13.791690786606926,
      100.55949660241586
    ]
  },
  {
    "id": "102705",
    "amphoe_id": "1027",
    "name_th": "นวลจันทร์",
    "name_en": "Nuan Chan",
    "center": {
      "lat": 13.715847,
      "lng": 100.518231
    },
    "bbox": [
      13.695847042982109,
      100.49823147626358,
      13.735847042982108,
      100.53823147626358
    ]
  },
  {
    "id": "102801",
    "amphoe_id": "1028",
    "name_th": "ทุ่งวัดดอน",
    "name_en": "Thung Wat Don",
    "center": {
      "lat": 13.713493,
      "lng": 100.501614
    },
    "bbox": [
      13.693492829843644,
      100.48161410829442,
      13.733492829843643,
      100.52161410829441
    ]
  },
  {
    "id": "102802",
    "amphoe_id": "1028",
    "name_th": "ยานนาวา",
    "name_en": "Yan Nawa",
    "center": {
      "lat": 13.737245,
      "lng": 100.50966
    },
    "bbox": [
      13.717245299444484,
      100.48965987296464,
      13.757245299444483,
      100.52965987296463
    ]
  },
  {
    "id": "102803",
    "amphoe_id": "1028",
    "name_th": "ทุ่งมหาเมฆ",
    "name_en": "Thung Maha Mek",
    "center": {
      "lat": 13.710988,
      "lng": 100.541238
    },
    "bbox": [
      13.69098836444363,
      100.52123808778967,
      13.730988364443629,
      100.56123808778966
    ]
  },
  {
    "id": "102901",
    "amphoe_id": "1029",
    "name_th": "บางซื่อ",
    "name_en": "Bang Sue",
    "center": {
      "lat": 13.78518,
      "lng": 100.5103
    },
    "bbox": [
      13.765179624842151,
      100.4903001046698,
      13.80517962484215,
      100.53030010466979
    ]
  },
  {
    "id": "102902",
    "amphoe_id": "1029",
    "name_th": "วงศ์สว่าง",
    "name_en": "Wong Sawang",
    "center": {
      "lat": 13.765804,
      "lng": 100.519405
    },
    "bbox": [
      13.745804493449475,
      100.49940541745863,
      13.785804493449474,
      100.53940541745862
    ]
  },
  {
    "id": "103001",
    "amphoe_id": "1030",
    "name_th": "ลาดยาว",
    "name_en": "Lat Yao",
    "center": {
      "lat": 13.730075,
      "lng": 100.521761
    },
    "bbox": [
      13.710075466163758,
      100.50176103870133,
      13.750075466163757,
      100.54176103870132
    ]
  },
  {
    "id": "103002",
    "amphoe_id": "1030",
    "name_th": "เสนานิคม",
    "name_en": "Sena Nikhom",
    "center": {
      "lat": 13.719852,
      "lng": 100.470837
    },
    "bbox": [
      13.699851891917518,
      100.45083716759272,
      13.739851891917517,
      100.49083716759272
    ]
  },
  {
    "id": "103003",
    "amphoe_id": "1030",
    "name_th": "จันทรเกษม",
    "name_en": "Chan Kasem",
    "center": {
      "lat": 13.724169,
      "lng": 100.45961
    },
    "bbox": [
      13.704168589602762,
      100.43960982369718,
      13.744168589602761,
      100.47960982369717
    ]
  },
  {
    "id": "103004",
    "amphoe_id": "1030",
    "name_th": "จอมพล",
    "name_en": "Chom Phon",
    "center": {
      "lat": 13.708408,
      "lng": 100.484585
    },
    "bbox": [
      13.688407705445634,
      100.46458531992319,
      13.728407705445633,
      100.50458531992318
    ]
  },
  {
    "id": "103005",
    "amphoe_id": "1030",
    "name_th": "จตุจักร",
    "name_en": "Chatuchak",
    "center": {
      "lat": 13.739658,
      "lng": 100.527977
    },
    "bbox": [
      13.719658129123607,
      100.50797701130045,
      13.759658129123606,
      100.54797701130045
    ]
  },
  {
    "id": "103101",
    "amphoe_id": "1031",
    "name_th": "บางคอแหลม",
    "name_en": "Bang Kho Laem",
    "center": {
      "lat": 13.70765,
      "lng": 100.477525
    },
    "bbox": [
      13.687650356146651,
      100.45752486778022,
      13.72765035614665,
      100.49752486778021
    ]
  },
  {
    "id": "103102",
    "amphoe_id": "1031",
    "name_th": "วัดพระยาไกร",
    "name_en": "Wat Phraya Krai",
    "center": {
      "lat": 13.716919,
      "lng": 100.51907
    },
    "bbox": [
      13.69691851235767,
      100.4990699582441,
      13.736918512357668,
      100.5390699582441
    ]
  },
  {
    "id": "103103",
    "amphoe_id": "1031",
    "name_th": "บางโคล่",
    "name_en": "Bang Khlo",
    "center": {
      "lat": 13.774001,
      "lng": 100.465092
    },
    "bbox": [
      13.754001049331553,
      100.44509168931675,
      13.794001049331552,
      100.48509168931675
    ]
  },
  {
    "id": "103201",
    "amphoe_id": "1032",
    "name_th": "ประเวศ",
    "name_en": "Prawet",
    "center": {
      "lat": 13.736634,
      "lng": 100.533731
    },
    "bbox": [
      13.71663423279635,
      100.5137310986631,
      13.75663423279635,
      100.55373109866309
    ]
  },
  {
    "id": "103202",
    "amphoe_id": "1032",
    "name_th": "หนองบอน",
    "name_en": "Nong Bon",
    "center": {
      "lat": 13.771073,
      "lng": 100.466312
    },
    "bbox": [
      13.751073318514255,
      100.44631195588073,
      13.791073318514254,
      100.48631195588072
    ]
  },
  {
    "id": "103203",
    "amphoe_id": "1032",
    "name_th": "ดอกไม้",
    "name_en": "Dok Mai",
    "center": {
      "lat": 13.720261,
      "lng": 100.514026
    },
    "bbox": [
      13.700260771868479,
      100.49402573860006,
      13.740260771868478,
      100.53402573860005
    ]
  },
  {
    "id": "103301",
    "amphoe_id": "1033",
    "name_th": "คลองเตย",
    "name_en": "Khlong Toei",
    "center": {
      "lat": 13.777209,
      "lng": 100.463819
    },
    "bbox": [
      13.757209049933616,
      100.44381918903774,
      13.797209049933615,
      100.48381918903773
    ]
  },
  {
    "id": "103302",
    "amphoe_id": "1033",
    "name_th": "คลองตัน",
    "name_en": "Khlong Tan",
    "center": {
      "lat": 13.714466,
      "lng": 100.50328
    },
    "bbox": [
      13.694466176878615,
      100.48327986625564,
      13.734466176878614,
      100.52327986625563
    ]
  },
  {
    "id": "103303",
    "amphoe_id": "1033",
    "name_th": "พระโขนง",
    "name_en": "Phra Khanong",
    "center": {
      "lat": 13.794953,
      "lng": 100.532679
    },
    "bbox": [
      13.774953000576746,
      100.5126794364912,
      13.814953000576745,
      100.55267943649119
    ]
  },
  {
    "id": "103401",
    "amphoe_id": "1034",
    "name_th": "สวนหลวง",
    "name_en": "Suan Luang",
    "center": {
      "lat": 13.766804,
      "lng": 100.507328
    },
    "bbox": [
      13.74680430608305,
      100.48732825395403,
      13.786804306083049,
      100.52732825395402
    ]
  },
  {
    "id": "103402",
    "amphoe_id": "1034",
    "name_th": "อ่อนนุช",
    "name_en": "On Nut",
    "center": {
      "lat": 13.771588,
      "lng": 100.53235
    },
    "bbox": [
      13.751588076727707,
      100.51234994019165,
      13.791588076727706,
      100.55234994019165
    ]
  },
  {
    "id": "103403",
    "amphoe_id": "1034",
    "name_th": "พัฒนาการ",
    "name_en": "Phatthanakan",
    "center": {
      "lat": 13.744533,
      "lng": 100.465037
    },
    "bbox": [
      13.724532595506442,
      100.44503719597552,
      13.764532595506441,
      100.48503719597551
    ]
  },
  {
    "id": "103501",
    "amphoe_id": "1035",
    "name_th": "บางขุนเทียน",
    "name_en": "Bang Khun Thian",
    "center": {
      "lat": 13.741694,
      "lng": 100.49267
    },
    "bbox": [
      13.721693789657774,
      100.47267017429593,
      13.761693789657773,
      100.51267017429592
    ]
  },
  {
    "id": "103502",
    "amphoe_id": "1035",
    "name_th": "บางค้อ",
    "name_en": "Bang Kho",
    "center": {
      "lat": 13.780504,
      "lng": 100.487094
    },
    "bbox": [
      13.760504006883119,
      100.4670940763452,
      13.800504006883118,
      100.5070940763452
    ]
  },
  {
    "id": "103503",
    "amphoe_id": "1035",
    "name_th": "บางมด",
    "name_en": "Bang Mot",
    "center": {
      "lat": 13.724864,
      "lng": 100.464267
    },
    "bbox": [
      13.70486413294547,
      100.44426667815625,
      13.74486413294547,
      100.48426667815625
    ]
  },
  {
    "id": "103504",
    "amphoe_id": "1035",
    "name_th": "จอมทอง",
    "name_en": "Chom Thong",
    "center": {
      "lat": 13.758272,
      "lng": 100.516485
    },
    "bbox": [
      13.738271761696124,
      100.49648488513287,
      13.778271761696123,
      100.53648488513286
    ]
  },
  {
    "id": "103602",
    "amphoe_id": "1036",
    "name_th": "สีกัน",
    "name_en": "Si Kan",
    "center": {
      "lat": 13.737804,
      "lng": 100.543719
    },
    "bbox": [
      13.717803841860247,
      100.52371878410666,
      13.757803841860246,
      100.56371878410665
    ]
  },
  {
    "id": "103604",
    "amphoe_id": "1036",
    "name_th": "ดอนเมือง",
    "name_en": "Don Mueang",
    "center": {
      "lat": 13.716494,
      "lng": 100.540438
    },
    "bbox": [
      13.69649372509245,
      100.52043775909095,
      13.73649372509245,
      100.56043775909095
    ]
  },
  {
    "id": "103605",
    "amphoe_id": "1036",
    "name_th": "สนามบิน",
    "name_en": "Sanam Bin",
    "center": {
      "lat": 13.711344,
      "lng": 100.541813
    },
    "bbox": [
      13.691344196049796,
      100.52181266429136,
      13.731344196049795,
      100.56181266429135
    ]
  },
  {
    "id": "103701",
    "amphoe_id": "1037",
    "name_th": "ทุ่งพญาไท",
    "name_en": "Thung Phaya Thai",
    "center": {
      "lat": 13.790958,
      "lng": 100.528587
    },
    "bbox": [
      13.770958120233587,
      100.50858675214845,
      13.810958120233586,
      100.54858675214844
    ]
  },
  {
    "id": "103702",
    "amphoe_id": "1037",
    "name_th": "ถนนพญาไท",
    "name_en": "Thanon Phaya Thai",
    "center": {
      "lat": 13.750639,
      "lng": 100.530653
    },
    "bbox": [
      13.730638530133858,
      100.51065265962943,
      13.770638530133857,
      100.55065265962942
    ]
  },
  {
    "id": "103703",
    "amphoe_id": "1037",
    "name_th": "ถนนเพชรบุรี",
    "name_en": "Thanon Phetchaburi",
    "center": {
      "lat": 13.80004,
      "lng": 100.483521
    },
    "bbox": [
      13.780039963465317,
      100.4635207746595,
      13.820039963465316,
      100.50352077465949
    ]
  },
  {
    "id": "103704",
    "amphoe_id": "1037",
    "name_th": "มักกะสัน",
    "name_en": "Makkasan",
    "center": {
      "lat": 13.746611,
      "lng": 100.50763
    },
    "bbox": [
      13.726611477546996,
      100.4876301263262,
      13.766611477546995,
      100.52763012632619
    ]
  },
  {
    "id": "103801",
    "amphoe_id": "1038",
    "name_th": "ลาดพร้าว",
    "name_en": "Lat Phrao",
    "center": {
      "lat": 13.783855,
      "lng": 100.500194
    },
    "bbox": [
      13.76385461824064,
      100.48019388362435,
      13.803854618240639,
      100.52019388362434
    ]
  },
  {
    "id": "103802",
    "amphoe_id": "1038",
    "name_th": "จรเข้บัว",
    "name_en": "Chorakhe Bua",
    "center": {
      "lat": 13.761405,
      "lng": 100.533633
    },
    "bbox": [
      13.741405154200468,
      100.5136334799327,
      13.781405154200467,
      100.55363347993269
    ]
  },
  {
    "id": "103901",
    "amphoe_id": "1039",
    "name_th": "คลองเตยเหนือ",
    "name_en": "Khlong Toei Nuea",
    "center": {
      "lat": 13.805746,
      "lng": 100.4731
    },
    "bbox": [
      13.785746173060003,
      100.4531003134343,
      13.825746173060002,
      100.4931003134343
    ]
  },
  {
    "id": "103902",
    "amphoe_id": "1039",
    "name_th": "คลองตันเหนือ",
    "name_en": "Khlong Tan Nuea",
    "center": {
      "lat": 13.771507,
      "lng": 100.519978
    },
    "bbox": [
      13.751507068123631,
      100.49997779127881,
      13.79150706812363,
      100.5399777912788
    ]
  },
  {
    "id": "103903",
    "amphoe_id": "1039",
    "name_th": "พระโขนงเหนือ",
    "name_en": "Phra Khanong Nuea",
    "center": {
      "lat": 13.764914,
      "lng": 100.523523
    },
    "bbox": [
      13.744913983496387,
      100.5035227279669,
      13.784913983496386,
      100.54352272796689
    ]
  },
  {
    "id": "104001",
    "amphoe_id": "1040",
    "name_th": "บางแค",
    "name_en": "Bang Khae",
    "center": {
      "lat": 13.793214,
      "lng": 100.543493
    },
    "bbox": [
      13.773214443729788,
      100.52349320429035,
      13.813214443729787,
      100.56349320429034
    ]
  },
  {
    "id": "104002",
    "amphoe_id": "1040",
    "name_th": "บางแคเหนือ",
    "name_en": "Bang Khae Nuea",
    "center": {
      "lat": 13.780514,
      "lng": 100.484151
    },
    "bbox": [
      13.760513805620088,
      100.464151299692,
      13.800513805620087,
      100.504151299692
    ]
  },
  {
    "id": "104003",
    "amphoe_id": "1040",
    "name_th": "บางไผ่",
    "name_en": "Bang Phai",
    "center": {
      "lat": 13.771069,
      "lng": 100.490861
    },
    "bbox": [
      13.751069367282023,
      100.47086059148714,
      13.791069367282022,
      100.51086059148713
    ]
  },
  {
    "id": "104004",
    "amphoe_id": "1040",
    "name_th": "หลักสอง",
    "name_en": "Lak Song",
    "center": {
      "lat": 13.709962,
      "lng": 100.486139
    },
    "bbox": [
      13.68996151903941,
      100.46613942603322,
      13.72996151903941,
      100.50613942603322
    ]
  },
  {
    "id": "104101",
    "amphoe_id": "1041",
    "name_th": "ทุ่งสองห้อง",
    "name_en": "Thung Song Hong",
    "center": {
      "lat": 13.788382,
      "lng": 100.540055
    },
    "bbox": [
      13.768382229136073,
      100.52005468563247,
      13.808382229136072,
      100.56005468563247
    ]
  },
  {
    "id": "104102",
    "amphoe_id": "1041",
    "name_th": "ตลาดบางเขน",
    "name_en": "Talat Bang Khen",
    "center": {
      "lat": 13.727777,
      "lng": 100.453212
    },
    "bbox": [
      13.707776862489403,
      100.43321162502365,
      13.747776862489403,
      100.47321162502364
    ]
  },
  {
    "id": "104201",
    "amphoe_id": "1042",
    "name_th": "สายไหม",
    "name_en": "Sai Mai",
    "center": {
      "lat": 13.765269,
      "lng": 100.520973
    },
    "bbox": [
      13.74526937283469,
      100.5009729596061,
      13.785269372834689,
      100.5409729596061
    ]
  },
  {
    "id": "104202",
    "amphoe_id": "1042",
    "name_th": "ออเงิน",
    "name_en": "O Ngoen",
    "center": {
      "lat": 13.722293,
      "lng": 100.474932
    },
    "bbox": [
      13.702293317396872,
      100.45493161586413,
      13.742293317396872,
      100.49493161586412
    ]
  },
  {
    "id": "104203",
    "amphoe_id": "1042",
    "name_th": "คลองถนน",
    "name_en": "Khlong Thanon",
    "center": {
      "lat": 13.771923,
      "lng": 100.475085
    },
    "bbox": [
      13.751922709257943,
      100.45508529915024,
      13.791922709257943,
      100.49508529915023
    ]
  },
  {
    "id": "104301",
    "amphoe_id": "1043",
    "name_th": "คันนายาว",
    "name_en": "Khan Na Yao",
    "center": {
      "lat": 13.732686,
      "lng": 100.508208
    },
    "bbox": [
      13.712686398726209,
      100.48820845969097,
      13.752686398726208,
      100.52820845969096
    ]
  },
  {
    "id": "104302",
    "amphoe_id": "1043",
    "name_th": "รามอินทรา",
    "name_en": "Ram Inthra",
    "center": {
      "lat": 13.783402,
      "lng": 100.533594
    },
    "bbox": [
      13.763401926162283,
      100.51359381891243,
      13.803401926162282,
      100.55359381891242
    ]
  },
  {
    "id": "104401",
    "amphoe_id": "1044",
    "name_th": "สะพานสูง",
    "name_en": "Saphan Sung",
    "center": {
      "lat": 13.779001,
      "lng": 100.46571
    },
    "bbox": [
      13.759001153777877,
      100.445710097562,
      13.799001153777876,
      100.48571009756199
    ]
  },
  {
    "id": "104402",
    "amphoe_id": "1044",
    "name_th": "ราษฎร์พัฒนา",
    "name_en": "Rat Phatthana",
    "center": {
      "lat": 13.71087,
      "lng": 100.534654
    },
    "bbox": [
      13.69086970000113,
      100.51465401172163,
      13.73086970000113,
      100.55465401172162
    ]
  },
  {
    "id": "104403",
    "amphoe_id": "1044",
    "name_th": "ทับช้าง",
    "name_en": "Thap Chang",
    "center": {
      "lat": 13.733925,
      "lng": 100.451839
    },
    "bbox": [
      13.713925435298496,
      100.43183881043146,
      13.753925435298495,
      100.47183881043145
    ]
  },
  {
    "id": "104501",
    "amphoe_id": "1045",
    "name_th": "วังทองหลาง",
    "name_en": "Wang Thonglang",
    "center": {
      "lat": 13.752975,
      "lng": 100.540628
    },
    "bbox": [
      13.732974738039585,
      100.52062814251568,
      13.772974738039585,
      100.56062814251567
    ]
  },
  {
    "id": "104502",
    "amphoe_id": "1045",
    "name_th": "สะพานสอง",
    "name_en": "Saphan Song",
    "center": {
      "lat": 13.734327,
      "lng": 100.46376
    },
    "bbox": [
      13.714327282065144,
      100.44376013306778,
      13.754327282065143,
      100.48376013306778
    ]
  },
  {
    "id": "104503",
    "amphoe_id": "1045",
    "name_th": "คลองเจ้าคุณสิงห์",
    "name_en": "Khlong Chao Khun Sing",
    "center": {
      "lat": 13.733259,
      "lng": 100.45505
    },
    "bbox": [
      13.713259386160619,
      100.43504962461564,
      13.753259386160618,
      100.47504962461564
    ]
  },
  {
    "id": "104504",
    "amphoe_id": "1045",
    "name_th": "พลับพลา",
    "name_en": "Phlapphla",
    "center": {
      "lat": 13.754373,
      "lng": 100.470868
    },
    "bbox": [
      13.734372638402494,
      100.45086837813369,
      13.774372638402493,
      100.49086837813368
    ]
  },
  {
    "id": "104601",
    "amphoe_id": "1046",
    "name_th": "สามวาตะวันตก",
    "name_en": "Sam Wa Tawan Tok",
    "center": {
      "lat": 13.752708,
      "lng": 100.514826
    },
    "bbox": [
      13.732707992545281,
      100.49482590536545,
      13.77270799254528,
      100.53482590536544
    ]
  },
  {
    "id": "104602",
    "amphoe_id": "1046",
    "name_th": "สามวาตะวันออก",
    "name_en": "Sam Wa Tawan Ok",
    "center": {
      "lat": 13.786702,
      "lng": 100.50302
    },
    "bbox": [
      13.766702306840022,
      100.48302016159258,
      13.806702306840021,
      100.52302016159257
    ]
  },
  {
    "id": "104603",
    "amphoe_id": "1046",
    "name_th": "บางชัน",
    "name_en": "Bang Chan",
    "center": {
      "lat": 13.73295,
      "lng": 100.517634
    },
    "bbox": [
      13.71294970872328,
      100.49763404165233,
      13.752949708723278,
      100.53763404165232
    ]
  },
  {
    "id": "104604",
    "amphoe_id": "1046",
    "name_th": "ทรายกองดิน",
    "name_en": "Sai Kong Din",
    "center": {
      "lat": 13.796426,
      "lng": 100.525329
    },
    "bbox": [
      13.77642604711094,
      100.50532891351591,
      13.816426047110939,
      100.5453289135159
    ]
  },
  {
    "id": "104605",
    "amphoe_id": "1046",
    "name_th": "ทรายกองดินใต้",
    "name_en": "Sai Kong Din Tai",
    "center": {
      "lat": 13.79909,
      "lng": 100.469505
    },
    "bbox": [
      13.779090241222134,
      100.44950509397609,
      13.819090241222133,
      100.48950509397608
    ]
  },
  {
    "id": "104702",
    "amphoe_id": "1047",
    "name_th": "บางนาเหนือ",
    "name_en": "Bang Na Nuea",
    "center": {
      "lat": 13.74903,
      "lng": 100.531277
    },
    "bbox": [
      13.729029569290121,
      100.51127716741956,
      13.76902956929012,
      100.55127716741956
    ]
  },
  {
    "id": "104703",
    "amphoe_id": "1047",
    "name_th": "บางนาใต้",
    "name_en": "Bang Na Tai",
    "center": {
      "lat": 13.741992,
      "lng": 100.500228
    },
    "bbox": [
      13.721992138195436,
      100.48022784343914,
      13.761992138195435,
      100.52022784343913
    ]
  },
  {
    "id": "104801",
    "amphoe_id": "1048",
    "name_th": "ทวีวัฒนา",
    "name_en": "Thawi Watthana",
    "center": {
      "lat": 13.805588,
      "lng": 100.465716
    },
    "bbox": [
      13.785588174229185,
      100.44571592107867,
      13.825588174229184,
      100.48571592107866
    ]
  },
  {
    "id": "104802",
    "amphoe_id": "1048",
    "name_th": "ศาลาธรรมสพน์",
    "name_en": "Sala Thammasop",
    "center": {
      "lat": 13.76558,
      "lng": 100.466039
    },
    "bbox": [
      13.745580366068003,
      100.44603861948549,
      13.785580366068002,
      100.48603861948548
    ]
  },
  {
    "id": "104901",
    "amphoe_id": "1049",
    "name_th": "บางมด",
    "name_en": "Bang Mot",
    "center": {
      "lat": 13.782437,
      "lng": 100.542215
    },
    "bbox": [
      13.762436669299221,
      100.52221505449396,
      13.80243666929922,
      100.56221505449395
    ]
  },
  {
    "id": "104902",
    "amphoe_id": "1049",
    "name_th": "ทุ่งครุ",
    "name_en": "Thung Khru",
    "center": {
      "lat": 13.742347,
      "lng": 100.51424
    },
    "bbox": [
      13.722347105095782,
      100.49424032373086,
      13.762347105095781,
      100.53424032373086
    ]
  },
  {
    "id": "105002",
    "amphoe_id": "1050",
    "name_th": "บางบอนเหนือ",
    "name_en": "Bang Bon Nuea",
    "center": {
      "lat": 13.761006,
      "lng": 100.493917
    },
    "bbox": [
      13.741006389564392,
      100.47391651890287,
      13.781006389564391,
      100.51391651890286
    ]
  },
  {
    "id": "105003",
    "amphoe_id": "1050",
    "name_th": "บางบอนใต้",
    "name_en": "Bang Bon Tai",
    "center": {
      "lat": 13.795892,
      "lng": 100.508587
    },
    "bbox": [
      13.775891552121562,
      100.48858729719926,
      13.815891552121562,
      100.52858729719925
    ]
  },
  {
    "id": "105004",
    "amphoe_id": "1050",
    "name_th": "คลองบางพราน",
    "name_en": "Khlong Bang Phran",
    "center": {
      "lat": 13.707548,
      "lng": 100.479185
    },
    "bbox": [
      13.687547619857574,
      100.45918503145103,
      13.727547619857573,
      100.49918503145102
    ]
  },
  {
    "id": "105005",
    "amphoe_id": "1050",
    "name_th": "คลองบางบอน",
    "name_en": "Khlong Bang Bon",
    "center": {
      "lat": 13.776382,
      "lng": 100.473178
    },
    "bbox": [
      13.756381687869787,
      100.45317805905675,
      13.796381687869786,
      100.49317805905675
    ]
  },
  {
    "id": "110101",
    "amphoe_id": "1101",
    "name_th": "ปากน้ำ",
    "name_en": "Paknam",
    "center": {
      "lat": 13.632693,
      "lng": 100.604228
    },
    "bbox": [
      13.612692738334811,
      100.58422777553038,
      13.65269273833481,
      100.62422777553037
    ]
  },
  {
    "id": "110102",
    "amphoe_id": "1101",
    "name_th": "สำโรงเหนือ",
    "name_en": "Samrong Nuea",
    "center": {
      "lat": 13.576919,
      "lng": 100.640391
    },
    "bbox": [
      13.556918633331236,
      100.62039077024347,
      13.596918633331235,
      100.66039077024347
    ]
  },
  {
    "id": "110103",
    "amphoe_id": "1101",
    "name_th": "บางเมือง",
    "name_en": "Bang Mueang",
    "center": {
      "lat": 13.550658,
      "lng": 100.634357
    },
    "bbox": [
      13.530657657886655,
      100.61435684023864,
      13.570657657886654,
      100.65435684023863
    ]
  },
  {
    "id": "110104",
    "amphoe_id": "1101",
    "name_th": "ท้ายบ้าน",
    "name_en": "Thai Ban",
    "center": {
      "lat": 13.591144,
      "lng": 100.581801
    },
    "bbox": [
      13.57114405912508,
      100.56180087579126,
      13.61114405912508,
      100.60180087579126
    ]
  },
  {
    "id": "110108",
    "amphoe_id": "1101",
    "name_th": "บางปูใหม่",
    "name_en": "Bang Pu Mai",
    "center": {
      "lat": 13.61455,
      "lng": 100.600653
    },
    "bbox": [
      13.594550363946485,
      100.58065317398928,
      13.634550363946484,
      100.62065317398927
    ]
  },
  {
    "id": "110110",
    "amphoe_id": "1101",
    "name_th": "แพรกษา",
    "name_en": "Phraekkasa",
    "center": {
      "lat": 13.584103,
      "lng": 100.64613
    },
    "bbox": [
      13.564103490266262,
      100.62612982989529,
      13.604103490266262,
      100.66612982989528
    ]
  },
  {
    "id": "110111",
    "amphoe_id": "1101",
    "name_th": "บางโปรง",
    "name_en": "Bang Prong",
    "center": {
      "lat": 13.631753,
      "lng": 100.632034
    },
    "bbox": [
      13.611752740968694,
      100.61203438130258,
      13.651752740968693,
      100.65203438130257
    ]
  },
  {
    "id": "110112",
    "amphoe_id": "1101",
    "name_th": "บางปู",
    "name_en": "Bang Pu",
    "center": {
      "lat": 13.591918,
      "lng": 100.551617
    },
    "bbox": [
      13.571917594360851,
      100.53161659175855,
      13.61191759436085,
      100.57161659175854
    ]
  },
  {
    "id": "110113",
    "amphoe_id": "1101",
    "name_th": "บางด้วน",
    "name_en": "Bang Duan",
    "center": {
      "lat": 13.635628,
      "lng": 100.571777
    },
    "bbox": [
      13.615627719489936,
      100.55177682466235,
      13.655627719489935,
      100.59177682466235
    ]
  },
  {
    "id": "110114",
    "amphoe_id": "1101",
    "name_th": "บางเมืองใหม่",
    "name_en": "Bang Mueang Mai",
    "center": {
      "lat": 13.549897,
      "lng": 100.568897
    },
    "bbox": [
      13.529897084344965,
      100.54889696492404,
      13.569897084344964,
      100.58889696492403
    ]
  },
  {
    "id": "110115",
    "amphoe_id": "1101",
    "name_th": "เทพารักษ์",
    "name_en": "Thepharak",
    "center": {
      "lat": 13.625987,
      "lng": 100.623592
    },
    "bbox": [
      13.60598712175927,
      100.60359220377157,
      13.64598712175927,
      100.64359220377156
    ]
  },
  {
    "id": "110116",
    "amphoe_id": "1101",
    "name_th": "ท้ายบ้านใหม่",
    "name_en": "Thai Ban Mai",
    "center": {
      "lat": 13.622415,
      "lng": 100.572651
    },
    "bbox": [
      13.602414936120045,
      100.55265072665578,
      13.642414936120044,
      100.59265072665578
    ]
  },
  {
    "id": "110117",
    "amphoe_id": "1101",
    "name_th": "แพรกษาใหม่",
    "name_en": "Phraekkasa Mai",
    "center": {
      "lat": 13.619398,
      "lng": 100.550991
    },
    "bbox": [
      13.5993978179808,
      100.53099078829081,
      13.639397817980798,
      100.5709907882908
    ]
  },
  {
    "id": "110201",
    "amphoe_id": "1102",
    "name_th": "บางบ่อ",
    "name_en": "Bang Bo",
    "center": {
      "lat": 13.617236,
      "lng": 100.605185
    },
    "bbox": [
      13.597235523116614,
      100.58518510673176,
      13.637235523116614,
      100.62518510673175
    ]
  },
  {
    "id": "110202",
    "amphoe_id": "1102",
    "name_th": "บ้านระกาศ",
    "name_en": "Ban Rakat",
    "center": {
      "lat": 13.628264,
      "lng": 100.648727
    },
    "bbox": [
      13.608263776574193,
      100.62872733345549,
      13.648263776574192,
      100.66872733345548
    ]
  },
  {
    "id": "110203",
    "amphoe_id": "1102",
    "name_th": "บางพลีน้อย",
    "name_en": "Bang Phli Noi",
    "center": {
      "lat": 13.549245,
      "lng": 100.588531
    },
    "bbox": [
      13.529244725884515,
      100.56853092896876,
      13.569244725884515,
      100.60853092896875
    ]
  },
  {
    "id": "110204",
    "amphoe_id": "1102",
    "name_th": "บางเพรียง",
    "name_en": "Bang Phriang",
    "center": {
      "lat": 13.574417,
      "lng": 100.562959
    },
    "bbox": [
      13.55441665788458,
      100.54295940220337,
      13.59441665788458,
      100.58295940220336
    ]
  },
  {
    "id": "110205",
    "amphoe_id": "1102",
    "name_th": "คลองด่าน",
    "name_en": "Khlong Dan",
    "center": {
      "lat": 13.594098,
      "lng": 100.639482
    },
    "bbox": [
      13.574098246512174,
      100.61948187898385,
      13.614098246512173,
      100.65948187898384
    ]
  },
  {
    "id": "110206",
    "amphoe_id": "1102",
    "name_th": "คลองสวน",
    "name_en": "Khlong Suan",
    "center": {
      "lat": 13.582455,
      "lng": 100.64942
    },
    "bbox": [
      13.56245511746642,
      100.6294203393189,
      13.60245511746642,
      100.66942033931889
    ]
  },
  {
    "id": "110207",
    "amphoe_id": "1102",
    "name_th": "เปร็ง",
    "name_en": "Preng",
    "center": {
      "lat": 13.591638,
      "lng": 100.61687
    },
    "bbox": [
      13.571638265460933,
      100.59687040449869,
      13.611638265460932,
      100.63687040449868
    ]
  },
  {
    "id": "110208",
    "amphoe_id": "1102",
    "name_th": "คลองนิยมยาตรา",
    "name_en": "Khlong Niyom Yattra",
    "center": {
      "lat": 13.58886,
      "lng": 100.616324
    },
    "bbox": [
      13.568859979017924,
      100.59632365551688,
      13.608859979017923,
      100.63632365551688
    ]
  },
  {
    "id": "110301",
    "amphoe_id": "1103",
    "name_th": "บางพลีใหญ่",
    "name_en": "Bang Phli Yai",
    "center": {
      "lat": 13.584382,
      "lng": 100.600701
    },
    "bbox": [
      13.564381990823511,
      100.58070061138463,
      13.60438199082351,
      100.62070061138462
    ]
  },
  {
    "id": "110302",
    "amphoe_id": "1103",
    "name_th": "บางแก้ว",
    "name_en": "Bang Kaeo",
    "center": {
      "lat": 13.588358,
      "lng": 100.640939
    },
    "bbox": [
      13.568357955485759,
      100.62093893092423,
      13.608357955485758,
      100.66093893092422
    ]
  },
  {
    "id": "110303",
    "amphoe_id": "1103",
    "name_th": "บางปลา",
    "name_en": "Bang Pla",
    "center": {
      "lat": 13.645161,
      "lng": 100.575684
    },
    "bbox": [
      13.625161453771442,
      100.55568391175095,
      13.665161453771441,
      100.59568391175094
    ]
  },
  {
    "id": "110304",
    "amphoe_id": "1103",
    "name_th": "บางโฉลง",
    "name_en": "Bang Chalong",
    "center": {
      "lat": 13.608929,
      "lng": 100.638943
    },
    "bbox": [
      13.588929082506159,
      100.61894306361442,
      13.628929082506158,
      100.65894306361442
    ]
  },
  {
    "id": "110308",
    "amphoe_id": "1103",
    "name_th": "ราชาเทวะ",
    "name_en": "Racha Thewa",
    "center": {
      "lat": 13.637815,
      "lng": 100.577662
    },
    "bbox": [
      13.617814951008263,
      100.55766161735325,
      13.657814951008262,
      100.59766161735324
    ]
  },
  {
    "id": "110309",
    "amphoe_id": "1103",
    "name_th": "หนองปรือ",
    "name_en": "Nong Prue",
    "center": {
      "lat": 13.63088,
      "lng": 100.637048
    },
    "bbox": [
      13.61087970538128,
      100.6170481985492,
      13.650879705381278,
      100.65704819854919
    ]
  },
  {
    "id": "110401",
    "amphoe_id": "1104",
    "name_th": "ตลาด",
    "name_en": "Talat",
    "center": {
      "lat": 13.641534,
      "lng": 100.550171
    },
    "bbox": [
      13.621534382076419,
      100.53017094717077,
      13.661534382076418,
      100.57017094717077
    ]
  },
  {
    "id": "110402",
    "amphoe_id": "1104",
    "name_th": "บางพึ่ง",
    "name_en": "Bang Phueng",
    "center": {
      "lat": 13.601635,
      "lng": 100.559229
    },
    "bbox": [
      13.581634736126206,
      100.53922935158099,
      13.621634736126206,
      100.57922935158098
    ]
  },
  {
    "id": "110403",
    "amphoe_id": "1104",
    "name_th": "บางจาก",
    "name_en": "Bang Chak",
    "center": {
      "lat": 13.59872,
      "lng": 100.568037
    },
    "bbox": [
      13.578719813112192,
      100.54803675610279,
      13.618719813112191,
      100.58803675610278
    ]
  },
  {
    "id": "110404",
    "amphoe_id": "1104",
    "name_th": "บางครุ",
    "name_en": "Bang Khru",
    "center": {
      "lat": 13.603336,
      "lng": 100.624831
    },
    "bbox": [
      13.583336462294131,
      100.60483056049786,
      13.62333646229413,
      100.64483056049785
    ]
  },
  {
    "id": "110405",
    "amphoe_id": "1104",
    "name_th": "บางหญ้าแพรก",
    "name_en": "Bang Ya Phraek",
    "center": {
      "lat": 13.561626,
      "lng": 100.607198
    },
    "bbox": [
      13.541625997237926,
      100.5871984619499,
      13.581625997237925,
      100.62719846194989
    ]
  },
  {
    "id": "110406",
    "amphoe_id": "1104",
    "name_th": "บางหัวเสือ",
    "name_en": "Bang Hua Suea",
    "center": {
      "lat": 13.577156,
      "lng": 100.639745
    },
    "bbox": [
      13.557156385021484,
      100.6197445309033,
      13.597156385021483,
      100.6597445309033
    ]
  },
  {
    "id": "110407",
    "amphoe_id": "1104",
    "name_th": "สำโรงใต้",
    "name_en": "Samrong Tai",
    "center": {
      "lat": 13.550912,
      "lng": 100.635074
    },
    "bbox": [
      13.530911891929716,
      100.61507354367092,
      13.570911891929715,
      100.65507354367091
    ]
  },
  {
    "id": "110408",
    "amphoe_id": "1104",
    "name_th": "บางยอ",
    "name_en": "Bang Yo",
    "center": {
      "lat": 13.59855,
      "lng": 100.592256
    },
    "bbox": [
      13.57855038525545,
      100.5722561361506,
      13.61855038525545,
      100.61225613615059
    ]
  },
  {
    "id": "110409",
    "amphoe_id": "1104",
    "name_th": "บางกะเจ้า",
    "name_en": "Bang Kachao",
    "center": {
      "lat": 13.637379,
      "lng": 100.648349
    },
    "bbox": [
      13.617378713786525,
      100.6283493675746,
      13.657378713786525,
      100.66834936757459
    ]
  },
  {
    "id": "110410",
    "amphoe_id": "1104",
    "name_th": "บางน้ำผึ้ง",
    "name_en": "Bang Namphueng",
    "center": {
      "lat": 13.622745,
      "lng": 100.583783
    },
    "bbox": [
      13.602744721644067,
      100.56378282557479,
      13.642744721644066,
      100.60378282557478
    ]
  },
  {
    "id": "110411",
    "amphoe_id": "1104",
    "name_th": "บางกระสอบ",
    "name_en": "Bang Krasop",
    "center": {
      "lat": 13.618531,
      "lng": 100.591376
    },
    "bbox": [
      13.598530718951725,
      100.571375742293,
      13.638530718951724,
      100.61137574229299
    ]
  },
  {
    "id": "110412",
    "amphoe_id": "1104",
    "name_th": "บางกอบัว",
    "name_en": "Bang Ko Bua",
    "center": {
      "lat": 13.609714,
      "lng": 100.608152
    },
    "bbox": [
      13.589713523552824,
      100.58815167123686,
      13.629713523552823,
      100.62815167123685
    ]
  },
  {
    "id": "110413",
    "amphoe_id": "1104",
    "name_th": "ทรงคนอง",
    "name_en": "Song Khanong",
    "center": {
      "lat": 13.584584,
      "lng": 100.561135
    },
    "bbox": [
      13.564584409716131,
      100.5411346578625,
      13.60458440971613,
      100.58113465786249
    ]
  },
  {
    "id": "110414",
    "amphoe_id": "1104",
    "name_th": "สำโรง",
    "name_en": "Samrong",
    "center": {
      "lat": 13.636371,
      "lng": 100.56285
    },
    "bbox": [
      13.616370695718139,
      100.54285009872407,
      13.656370695718138,
      100.58285009872407
    ]
  },
  {
    "id": "110415",
    "amphoe_id": "1104",
    "name_th": "สำโรงกลาง",
    "name_en": "Samrong Klang",
    "center": {
      "lat": 13.599356,
      "lng": 100.583498
    },
    "bbox": [
      13.57935587967412,
      100.56349825415398,
      13.619355879674119,
      100.60349825415398
    ]
  },
  {
    "id": "110501",
    "amphoe_id": "1105",
    "name_th": "นาเกลือ",
    "name_en": "Na Kluea",
    "center": {
      "lat": 13.637387,
      "lng": 100.63747
    },
    "bbox": [
      13.61738676983209,
      100.61747016923039,
      13.657386769832089,
      100.65747016923038
    ]
  },
  {
    "id": "110502",
    "amphoe_id": "1105",
    "name_th": "บ้านคลองสวน",
    "name_en": "Ban Khlong Suan",
    "center": {
      "lat": 13.594039,
      "lng": 100.554863
    },
    "bbox": [
      13.574039054068615,
      100.53486325628126,
      13.614039054068614,
      100.57486325628125
    ]
  },
  {
    "id": "110503",
    "amphoe_id": "1105",
    "name_th": "แหลมฟ้าผ่า",
    "name_en": "Laem Fa Pha",
    "center": {
      "lat": 13.594572,
      "lng": 100.590931
    },
    "bbox": [
      13.574572062921845,
      100.57093099655518,
      13.614572062921845,
      100.61093099655517
    ]
  },
  {
    "id": "110504",
    "amphoe_id": "1105",
    "name_th": "ปากคลองบางปลากด",
    "name_en": "Pak Khlong Bang Pla Kot",
    "center": {
      "lat": 13.603478,
      "lng": 100.576962
    },
    "bbox": [
      13.583477739818509,
      100.5569622431683,
      13.623477739818508,
      100.59696224316829
    ]
  },
  {
    "id": "110505",
    "amphoe_id": "1105",
    "name_th": "ในคลองบางปลากด",
    "name_en": "Nai Khlong Bang Pla Kot",
    "center": {
      "lat": 13.599588,
      "lng": 100.561471
    },
    "bbox": [
      13.57958779008707,
      100.54147112373576,
      13.619587790087069,
      100.58147112373575
    ]
  },
  {
    "id": "110601",
    "amphoe_id": "1106",
    "name_th": "บางเสาธง",
    "name_en": "Bang Sao Thong",
    "center": {
      "lat": 13.585628,
      "lng": 100.553394
    },
    "bbox": [
      13.565627844896914,
      100.53339426926368,
      13.605627844896913,
      100.57339426926367
    ]
  },
  {
    "id": "110602",
    "amphoe_id": "1106",
    "name_th": "ศีรษะจรเข้น้อย",
    "name_en": "Sisa Chorakhe Noi",
    "center": {
      "lat": 13.556178,
      "lng": 100.590697
    },
    "bbox": [
      13.536178415367843,
      100.57069741857954,
      13.576178415367842,
      100.61069741857953
    ]
  },
  {
    "id": "110603",
    "amphoe_id": "1106",
    "name_th": "ศีรษะจรเข้ใหญ่",
    "name_en": "Sisa Chorakhe Yai",
    "center": {
      "lat": 13.555754,
      "lng": 100.60109
    },
    "bbox": [
      13.53575354953315,
      100.58108968907688,
      13.575753549533149,
      100.62108968907687
    ]
  },
  {
    "id": "120101",
    "amphoe_id": "1201",
    "name_th": "สวนใหญ่",
    "name_en": "Suan Yai",
    "center": {
      "lat": 13.831369,
      "lng": 100.476842
    },
    "bbox": [
      13.811369304847608,
      100.45684210368442,
      13.851369304847607,
      100.49684210368441
    ]
  },
  {
    "id": "120102",
    "amphoe_id": "1201",
    "name_th": "ตลาดขวัญ",
    "name_en": "Talat Khwan",
    "center": {
      "lat": 13.873898,
      "lng": 100.543771
    },
    "bbox": [
      13.85389780219107,
      100.52377106841651,
      13.89389780219107,
      100.5637710684165
    ]
  },
  {
    "id": "120103",
    "amphoe_id": "1201",
    "name_th": "บางเขน",
    "name_en": "Bang Khen",
    "center": {
      "lat": 13.882124,
      "lng": 100.472472
    },
    "bbox": [
      13.862124241138444,
      100.45247247772865,
      13.902124241138443,
      100.49247247772864
    ]
  },
  {
    "id": "120104",
    "amphoe_id": "1201",
    "name_th": "บางกระสอ",
    "name_en": "Bang Kraso",
    "center": {
      "lat": 13.826844,
      "lng": 100.515056
    },
    "bbox": [
      13.806843957217385,
      100.49505633841551,
      13.846843957217384,
      100.5350563384155
    ]
  },
  {
    "id": "120105",
    "amphoe_id": "1201",
    "name_th": "ท่าทราย",
    "name_en": "Tha Sai",
    "center": {
      "lat": 13.904399,
      "lng": 100.475509
    },
    "bbox": [
      13.884399022965566,
      100.45550900996483,
      13.924399022965565,
      100.49550900996482
    ]
  },
  {
    "id": "120106",
    "amphoe_id": "1201",
    "name_th": "บางไผ่",
    "name_en": "Bang Phai",
    "center": {
      "lat": 13.815477,
      "lng": 100.530185
    },
    "bbox": [
      13.795477127502975,
      100.51018505078717,
      13.835477127502974,
      100.55018505078716
    ]
  },
  {
    "id": "120107",
    "amphoe_id": "1201",
    "name_th": "บางศรีเมือง",
    "name_en": "Bang Si Mueang",
    "center": {
      "lat": 13.899649,
      "lng": 100.549852
    },
    "bbox": [
      13.87964896365763,
      100.52985190914688,
      13.919648963657629,
      100.56985190914688
    ]
  },
  {
    "id": "120108",
    "amphoe_id": "1201",
    "name_th": "บางกร่าง",
    "name_en": "Bang Krang",
    "center": {
      "lat": 13.875198,
      "lng": 100.529982
    },
    "bbox": [
      13.855198460240555,
      100.50998192292651,
      13.895198460240554,
      100.5499819229265
    ]
  },
  {
    "id": "120109",
    "amphoe_id": "1201",
    "name_th": "ไทรม้า",
    "name_en": "Sai Ma",
    "center": {
      "lat": 13.824955,
      "lng": 100.474487
    },
    "bbox": [
      13.804954762391022,
      100.45448666326358,
      13.844954762391021,
      100.49448666326357
    ]
  },
  {
    "id": "120110",
    "amphoe_id": "1201",
    "name_th": "บางรักน้อย",
    "name_en": "Bang Rak Noi",
    "center": {
      "lat": 13.854684,
      "lng": 100.525016
    },
    "bbox": [
      13.834684345738694,
      100.505016131926,
      13.874684345738693,
      100.54501613192599
    ]
  },
  {
    "id": "120201",
    "amphoe_id": "1202",
    "name_th": "วัดชลอ",
    "name_en": "Wat Chalo",
    "center": {
      "lat": 13.876328,
      "lng": 100.520331
    },
    "bbox": [
      13.856328088206775,
      100.50033108641026,
      13.896328088206774,
      100.54033108641025
    ]
  },
  {
    "id": "120202",
    "amphoe_id": "1202",
    "name_th": "บางกรวย",
    "name_en": "Bang Kruai",
    "center": {
      "lat": 13.896492,
      "lng": 100.486364
    },
    "bbox": [
      13.876492106444262,
      100.46636366546798,
      13.916492106444261,
      100.50636366546797
    ]
  },
  {
    "id": "120203",
    "amphoe_id": "1202",
    "name_th": "บางสีทอง",
    "name_en": "Bang Si Thong",
    "center": {
      "lat": 13.860829,
      "lng": 100.483233
    },
    "bbox": [
      13.840828873400788,
      100.46323257520208,
      13.880828873400787,
      100.50323257520208
    ]
  },
  {
    "id": "120204",
    "amphoe_id": "1202",
    "name_th": "บางขนุน",
    "name_en": "Bang Khanun",
    "center": {
      "lat": 13.844743,
      "lng": 100.564293
    },
    "bbox": [
      13.824742697751873,
      100.54429275442916,
      13.864742697751872,
      100.58429275442916
    ]
  },
  {
    "id": "120205",
    "amphoe_id": "1202",
    "name_th": "บางขุนกอง",
    "name_en": "Bang Khun Kong",
    "center": {
      "lat": 13.849091,
      "lng": 100.548455
    },
    "bbox": [
      13.829090718623739,
      100.52845549431696,
      13.869090718623738,
      100.56845549431695
    ]
  },
  {
    "id": "120206",
    "amphoe_id": "1202",
    "name_th": "บางคูเวียง",
    "name_en": "Bang Khu Wiang",
    "center": {
      "lat": 13.910617,
      "lng": 100.52981
    },
    "bbox": [
      13.890616988672146,
      100.50981001732369,
      13.930616988672146,
      100.54981001732368
    ]
  },
  {
    "id": "120207",
    "amphoe_id": "1202",
    "name_th": "มหาสวัสดิ์",
    "name_en": "Maha Sawat",
    "center": {
      "lat": 13.864386,
      "lng": 100.513974
    },
    "bbox": [
      13.844385792183806,
      100.49397386343848,
      13.884385792183805,
      100.53397386343848
    ]
  },
  {
    "id": "120208",
    "amphoe_id": "1202",
    "name_th": "ปลายบาง",
    "name_en": "Plai Bang",
    "center": {
      "lat": 13.89522,
      "lng": 100.503785
    },
    "bbox": [
      13.875220058799162,
      100.48378545177313,
      13.91522005879916,
      100.52378545177312
    ]
  },
  {
    "id": "120209",
    "amphoe_id": "1202",
    "name_th": "ศาลากลาง",
    "name_en": "Sala Klang",
    "center": {
      "lat": 13.83544,
      "lng": 100.51497
    },
    "bbox": [
      13.815440188172724,
      100.49497045358999,
      13.855440188172723,
      100.53497045358998
    ]
  },
  {
    "id": "120301",
    "amphoe_id": "1203",
    "name_th": "บางม่วง",
    "name_en": "Bang Muang",
    "center": {
      "lat": 13.843888,
      "lng": 100.50666
    },
    "bbox": [
      13.82388771055275,
      100.48666012475582,
      13.86388771055275,
      100.52666012475581
    ]
  },
  {
    "id": "120302",
    "amphoe_id": "1203",
    "name_th": "บางแม่นาง",
    "name_en": "Bang Mae Nang",
    "center": {
      "lat": 13.880299,
      "lng": 100.527134
    },
    "bbox": [
      13.86029949933084,
      100.50713382180045,
      13.900299499330838,
      100.54713382180044
    ]
  },
  {
    "id": "120303",
    "amphoe_id": "1203",
    "name_th": "บางเลน",
    "name_en": "Bang Len",
    "center": {
      "lat": 13.884865,
      "lng": 100.5117
    },
    "bbox": [
      13.864865220580969,
      100.49170025236047,
      13.904865220580968,
      100.53170025236047
    ]
  },
  {
    "id": "120304",
    "amphoe_id": "1203",
    "name_th": "เสาธงหิน",
    "name_en": "Sao Thong Hin",
    "center": {
      "lat": 13.87583,
      "lng": 100.467989
    },
    "bbox": [
      13.855830373770582,
      100.44798927506508,
      13.89583037377058,
      100.48798927506508
    ]
  },
  {
    "id": "120305",
    "amphoe_id": "1203",
    "name_th": "บางใหญ่",
    "name_en": "Bang Yai",
    "center": {
      "lat": 13.912068,
      "lng": 100.505936
    },
    "bbox": [
      13.89206821335049,
      100.48593638800615,
      13.932068213350489,
      100.52593638800614
    ]
  },
  {
    "id": "120306",
    "amphoe_id": "1203",
    "name_th": "บ้านใหม่",
    "name_en": "Ban Mai",
    "center": {
      "lat": 13.838767,
      "lng": 100.522175
    },
    "bbox": [
      13.8187673442333,
      100.50217488247101,
      13.8587673442333,
      100.542174882471
    ]
  },
  {
    "id": "120401",
    "amphoe_id": "1204",
    "name_th": "โสนลอย",
    "name_en": "Sano Loi",
    "center": {
      "lat": 13.88183,
      "lng": 100.511907
    },
    "bbox": [
      13.86182975315648,
      100.49190694457837,
      13.901829753156479,
      100.53190694457837
    ]
  },
  {
    "id": "120402",
    "amphoe_id": "1204",
    "name_th": "บางบัวทอง",
    "name_en": "Bang Bua Thong",
    "center": {
      "lat": 13.899611,
      "lng": 100.489301
    },
    "bbox": [
      13.879610507636952,
      100.46930117047647,
      13.919610507636952,
      100.50930117047646
    ]
  },
  {
    "id": "120403",
    "amphoe_id": "1204",
    "name_th": "บางรักใหญ่",
    "name_en": "Bang Rak Yai",
    "center": {
      "lat": 13.834136,
      "lng": 100.561554
    },
    "bbox": [
      13.814136297621125,
      100.54155355489364,
      13.854136297621125,
      100.58155355489363
    ]
  },
  {
    "id": "120404",
    "amphoe_id": "1204",
    "name_th": "บางคูรัด",
    "name_en": "Bang Khu Rat",
    "center": {
      "lat": 13.838871,
      "lng": 100.519051
    },
    "bbox": [
      13.818871297142353,
      100.49905144001643,
      13.858871297142352,
      100.53905144001642
    ]
  },
  {
    "id": "120405",
    "amphoe_id": "1204",
    "name_th": "ละหาร",
    "name_en": "Lahan",
    "center": {
      "lat": 13.825899,
      "lng": 100.517325
    },
    "bbox": [
      13.805898619740072,
      100.49732543372086,
      13.84589861974007,
      100.53732543372085
    ]
  },
  {
    "id": "120406",
    "amphoe_id": "1204",
    "name_th": "ลำโพ",
    "name_en": "Lam Pho",
    "center": {
      "lat": 13.851198,
      "lng": 100.482392
    },
    "bbox": [
      13.83119836444654,
      100.46239247974148,
      13.871198364446538,
      100.50239247974147
    ]
  },
  {
    "id": "120407",
    "amphoe_id": "1204",
    "name_th": "พิมลราช",
    "name_en": "Phimon Rat",
    "center": {
      "lat": 13.898981,
      "lng": 100.489957
    },
    "bbox": [
      13.878981207815578,
      100.46995709270821,
      13.918981207815577,
      100.5099570927082
    ]
  },
  {
    "id": "120408",
    "amphoe_id": "1204",
    "name_th": "บางรักพัฒนา",
    "name_en": "Bang Rak Phatthana",
    "center": {
      "lat": 13.896126,
      "lng": 100.494714
    },
    "bbox": [
      13.876125574163662,
      100.47471401119016,
      13.916125574163662,
      100.51471401119015
    ]
  },
  {
    "id": "120501",
    "amphoe_id": "1205",
    "name_th": "ไทรน้อย",
    "name_en": "Sai Noi",
    "center": {
      "lat": 13.895893,
      "lng": 100.475017
    },
    "bbox": [
      13.875892525154828,
      100.45501661698688,
      13.915892525154828,
      100.49501661698687
    ]
  },
  {
    "id": "120502",
    "amphoe_id": "1205",
    "name_th": "ราษฎร์นิยม",
    "name_en": "Rat Niyom",
    "center": {
      "lat": 13.874457,
      "lng": 100.507501
    },
    "bbox": [
      13.854456680626518,
      100.48750070651016,
      13.894456680626517,
      100.52750070651015
    ]
  },
  {
    "id": "120503",
    "amphoe_id": "1205",
    "name_th": "หนองเพรางาย",
    "name_en": "Nong Phrao Ngai",
    "center": {
      "lat": 13.861977,
      "lng": 100.51174
    },
    "bbox": [
      13.841977144023529,
      100.49173994342635,
      13.881977144023528,
      100.53173994342635
    ]
  },
  {
    "id": "120504",
    "amphoe_id": "1205",
    "name_th": "ไทรใหญ่",
    "name_en": "Sai Yai",
    "center": {
      "lat": 13.860332,
      "lng": 100.552926
    },
    "bbox": [
      13.840332423296932,
      100.53292609008388,
      13.880332423296931,
      100.57292609008387
    ]
  },
  {
    "id": "120505",
    "amphoe_id": "1205",
    "name_th": "ขุนศรี",
    "name_en": "Khun Si",
    "center": {
      "lat": 13.900528,
      "lng": 100.543646
    },
    "bbox": [
      13.88052755994025,
      100.52364638350458,
      13.920527559940249,
      100.56364638350458
    ]
  },
  {
    "id": "120506",
    "amphoe_id": "1205",
    "name_th": "คลองขวาง",
    "name_en": "Khlong Khwang",
    "center": {
      "lat": 13.829561,
      "lng": 100.524741
    },
    "bbox": [
      13.80956093632617,
      100.50474113402726,
      13.849560936326169,
      100.54474113402725
    ]
  },
  {
    "id": "120507",
    "amphoe_id": "1205",
    "name_th": "ทวีวัฒนา",
    "name_en": "Thawi Watthana",
    "center": {
      "lat": 13.850277,
      "lng": 100.475871
    },
    "bbox": [
      13.830277299260887,
      100.45587063476965,
      13.870277299260886,
      100.49587063476964
    ]
  },
  {
    "id": "120601",
    "amphoe_id": "1206",
    "name_th": "ปากเกร็ด",
    "name_en": "Pak Kret",
    "center": {
      "lat": 13.880613,
      "lng": 100.517833
    },
    "bbox": [
      13.860613099892667,
      100.49783328018417,
      13.900613099892666,
      100.53783328018416
    ]
  },
  {
    "id": "120602",
    "amphoe_id": "1206",
    "name_th": "บางตลาด",
    "name_en": "Bang Talat",
    "center": {
      "lat": 13.896106,
      "lng": 100.558465
    },
    "bbox": [
      13.876106435361791,
      100.53846522545419,
      13.91610643536179,
      100.57846522545418
    ]
  },
  {
    "id": "120603",
    "amphoe_id": "1206",
    "name_th": "บ้านใหม่",
    "name_en": "Ban Mai",
    "center": {
      "lat": 13.823276,
      "lng": 100.467903
    },
    "bbox": [
      13.803276400308599,
      100.44790283096177,
      13.843276400308598,
      100.48790283096176
    ]
  },
  {
    "id": "120604",
    "amphoe_id": "1206",
    "name_th": "บางพูด",
    "name_en": "Bang Phut",
    "center": {
      "lat": 13.850032,
      "lng": 100.475838
    },
    "bbox": [
      13.830032128625895,
      100.4558382238651,
      13.870032128625894,
      100.49583822386509
    ]
  },
  {
    "id": "120605",
    "amphoe_id": "1206",
    "name_th": "บางตะไนย์",
    "name_en": "Bang Tanai",
    "center": {
      "lat": 13.824061,
      "lng": 100.56371
    },
    "bbox": [
      13.804060909148616,
      100.543710163434,
      13.844060909148615,
      100.58371016343399
    ]
  },
  {
    "id": "120606",
    "amphoe_id": "1206",
    "name_th": "คลองพระอุดม",
    "name_en": "Khlong Phra Udom",
    "center": {
      "lat": 13.815132,
      "lng": 100.538798
    },
    "bbox": [
      13.795132235823424,
      100.51879835049655,
      13.835132235823423,
      100.55879835049655
    ]
  },
  {
    "id": "120607",
    "amphoe_id": "1206",
    "name_th": "ท่าอิฐ",
    "name_en": "Tha It",
    "center": {
      "lat": 13.837056,
      "lng": 100.529637
    },
    "bbox": [
      13.817055540813552,
      100.50963740874893,
      13.857055540813551,
      100.54963740874892
    ]
  },
  {
    "id": "120608",
    "amphoe_id": "1206",
    "name_th": "เกาะเกร็ด",
    "name_en": "Ko Kret",
    "center": {
      "lat": 13.854656,
      "lng": 100.492952
    },
    "bbox": [
      13.834656002841985,
      100.4729519546666,
      13.874656002841984,
      100.51295195466659
    ]
  },
  {
    "id": "120609",
    "amphoe_id": "1206",
    "name_th": "อ้อมเกร็ด",
    "name_en": "Om Kret",
    "center": {
      "lat": 13.81308,
      "lng": 100.489487
    },
    "bbox": [
      13.793080498996282,
      100.46948719854143,
      13.833080498996281,
      100.50948719854142
    ]
  },
  {
    "id": "120610",
    "amphoe_id": "1206",
    "name_th": "คลองข่อย",
    "name_en": "Khlong Khoi",
    "center": {
      "lat": 13.839474,
      "lng": 100.486745
    },
    "bbox": [
      13.81947409688296,
      100.46674508640862,
      13.859474096882959,
      100.50674508640861
    ]
  },
  {
    "id": "120611",
    "amphoe_id": "1206",
    "name_th": "บางพลับ",
    "name_en": "Bang Phlap",
    "center": {
      "lat": 13.823537,
      "lng": 100.475295
    },
    "bbox": [
      13.803537222844929,
      100.45529502267502,
      13.843537222844928,
      100.49529502267501
    ]
  },
  {
    "id": "120612",
    "amphoe_id": "1206",
    "name_th": "คลองเกลือ",
    "name_en": "Khlong Kluea",
    "center": {
      "lat": 13.843318,
      "lng": 100.507415
    },
    "bbox": [
      13.823317622911672,
      100.48741531686926,
      13.863317622911671,
      100.52741531686925
    ]
  },
  {
    "id": "130101",
    "amphoe_id": "1301",
    "name_th": "บางปรอก",
    "name_en": "Bang Prok",
    "center": {
      "lat": 13.97124,
      "lng": 100.504458
    },
    "bbox": [
      13.951240316171386,
      100.4844584146598,
      13.991240316171385,
      100.52445841465979
    ]
  },
  {
    "id": "130102",
    "amphoe_id": "1301",
    "name_th": "บ้านใหม่",
    "name_en": "Ban Mai",
    "center": {
      "lat": 14.05759,
      "lng": 100.54516
    },
    "bbox": [
      14.037590358631405,
      100.52516003365096,
      14.077590358631404,
      100.56516003365095
    ]
  },
  {
    "id": "130103",
    "amphoe_id": "1301",
    "name_th": "บ้านกลาง",
    "name_en": "Ban Klang",
    "center": {
      "lat": 14.068763,
      "lng": 100.484457
    },
    "bbox": [
      14.048763086355354,
      100.46445656481455,
      14.088763086355353,
      100.50445656481455
    ]
  },
  {
    "id": "130104",
    "amphoe_id": "1301",
    "name_th": "บ้านฉาง",
    "name_en": "Ban Chang",
    "center": {
      "lat": 14.063729,
      "lng": 100.504276
    },
    "bbox": [
      14.043728753672518,
      100.48427625505953,
      14.083728753672517,
      100.52427625505952
    ]
  },
  {
    "id": "130105",
    "amphoe_id": "1301",
    "name_th": "บ้านกระแชง",
    "name_en": "Ban Krachaeng",
    "center": {
      "lat": 14.067191,
      "lng": 100.527245
    },
    "bbox": [
      14.047190715879804,
      100.50724481517258,
      14.087190715879803,
      100.54724481517258
    ]
  },
  {
    "id": "130106",
    "amphoe_id": "1301",
    "name_th": "บางขะแยง",
    "name_en": "Bang Khayaeng",
    "center": {
      "lat": 13.995247,
      "lng": 100.529401
    },
    "bbox": [
      13.975247253765335,
      100.50940124258965,
      14.015247253765335,
      100.54940124258964
    ]
  },
  {
    "id": "130107",
    "amphoe_id": "1301",
    "name_th": "บางคูวัด",
    "name_en": "Bang Khu Wat",
    "center": {
      "lat": 14.024756,
      "lng": 100.486986
    },
    "bbox": [
      14.004755551868339,
      100.466985922418,
      14.044755551868338,
      100.506985922418
    ]
  },
  {
    "id": "130108",
    "amphoe_id": "1301",
    "name_th": "บางหลวง",
    "name_en": "Bang Luang",
    "center": {
      "lat": 13.983623,
      "lng": 100.508921
    },
    "bbox": [
      13.963623366585786,
      100.48892055544638,
      14.003623366585785,
      100.52892055544638
    ]
  },
  {
    "id": "130109",
    "amphoe_id": "1301",
    "name_th": "บางเดื่อ",
    "name_en": "Bang Duea",
    "center": {
      "lat": 14.002914,
      "lng": 100.516785
    },
    "bbox": [
      13.982913982524408,
      100.49678476771555,
      14.022913982524408,
      100.53678476771555
    ]
  },
  {
    "id": "130110",
    "amphoe_id": "1301",
    "name_th": "บางพูด",
    "name_en": "Bang Phut",
    "center": {
      "lat": 14.020492,
      "lng": 100.540213
    },
    "bbox": [
      14.000491611843817,
      100.52021293558101,
      14.040491611843816,
      100.560212935581
    ]
  },
  {
    "id": "130111",
    "amphoe_id": "1301",
    "name_th": "บางพูน",
    "name_en": "Bang Phun",
    "center": {
      "lat": 13.986735,
      "lng": 100.485244
    },
    "bbox": [
      13.966734789242182,
      100.46524430807992,
      14.00673478924218,
      100.50524430807991
    ]
  },
  {
    "id": "130112",
    "amphoe_id": "1301",
    "name_th": "บางกะดี",
    "name_en": "Bang Kadi",
    "center": {
      "lat": 13.987265,
      "lng": 100.533805
    },
    "bbox": [
      13.96726509705308,
      100.51380465883534,
      14.007265097053079,
      100.55380465883533
    ]
  },
  {
    "id": "130113",
    "amphoe_id": "1301",
    "name_th": "สวนพริกไทย",
    "name_en": "Suan Phrikthai",
    "center": {
      "lat": 14.060093,
      "lng": 100.531191
    },
    "bbox": [
      14.040093326544763,
      100.51119111097752,
      14.080093326544763,
      100.55119111097751
    ]
  },
  {
    "id": "130114",
    "amphoe_id": "1301",
    "name_th": "หลักหก",
    "name_en": "Lak Hok",
    "center": {
      "lat": 13.98805,
      "lng": 100.486684
    },
    "bbox": [
      13.968049976163526,
      100.46668438147387,
      14.008049976163525,
      100.50668438147386
    ]
  },
  {
    "id": "130201",
    "amphoe_id": "1302",
    "name_th": "คลองหนึ่ง",
    "name_en": "Khlong Nueng",
    "center": {
      "lat": 14.038447,
      "lng": 100.566097
    },
    "bbox": [
      14.01844720853008,
      100.54609696048765,
      14.05844720853008,
      100.58609696048764
    ]
  },
  {
    "id": "130202",
    "amphoe_id": "1302",
    "name_th": "คลองสอง",
    "name_en": "Khlong Song",
    "center": {
      "lat": 14.050192,
      "lng": 100.528549
    },
    "bbox": [
      14.030192251627623,
      100.50854860422025,
      14.070192251627622,
      100.54854860422024
    ]
  },
  {
    "id": "130203",
    "amphoe_id": "1302",
    "name_th": "คลองสาม",
    "name_en": "Khlong Sam",
    "center": {
      "lat": 13.986442,
      "lng": 100.536071
    },
    "bbox": [
      13.966441740076995,
      100.51607129884607,
      14.006441740076994,
      100.55607129884606
    ]
  },
  {
    "id": "130204",
    "amphoe_id": "1302",
    "name_th": "คลองสี่",
    "name_en": "Khlong Si",
    "center": {
      "lat": 14.033798,
      "lng": 100.483568
    },
    "bbox": [
      14.01379788551299,
      100.46356805237112,
      14.053797885512989,
      100.50356805237111
    ]
  },
  {
    "id": "130205",
    "amphoe_id": "1302",
    "name_th": "คลองห้า",
    "name_en": "Khlong Ha",
    "center": {
      "lat": 14.035351,
      "lng": 100.49863
    },
    "bbox": [
      14.015351471879328,
      100.47863014373291,
      14.055351471879327,
      100.5186301437329
    ]
  },
  {
    "id": "130206",
    "amphoe_id": "1302",
    "name_th": "คลองหก",
    "name_en": "Khlong Hok",
    "center": {
      "lat": 13.975987,
      "lng": 100.549083
    },
    "bbox": [
      13.955987086533943,
      100.52908319243373,
      13.995987086533942,
      100.56908319243372
    ]
  },
  {
    "id": "130207",
    "amphoe_id": "1302",
    "name_th": "คลองเจ็ด",
    "name_en": "Khlong Chet",
    "center": {
      "lat": 14.047266,
      "lng": 100.506788
    },
    "bbox": [
      14.027265586488946,
      100.48678819166001,
      14.067265586488945,
      100.52678819166
    ]
  },
  {
    "id": "130301",
    "amphoe_id": "1303",
    "name_th": "ประชาธิปัตย์",
    "name_en": "Prachathipat",
    "center": {
      "lat": 13.997012,
      "lng": 100.556426
    },
    "bbox": [
      13.977011779335989,
      100.53642604835021,
      14.017011779335988,
      100.5764260483502
    ]
  },
  {
    "id": "130302",
    "amphoe_id": "1303",
    "name_th": "บึงยี่โถ",
    "name_en": "Bueng Yitho",
    "center": {
      "lat": 14.037651,
      "lng": 100.491064
    },
    "bbox": [
      14.0176506598784,
      100.47106351929467,
      14.0576506598784,
      100.51106351929467
    ]
  },
  {
    "id": "130303",
    "amphoe_id": "1303",
    "name_th": "รังสิต",
    "name_en": "Rangsit",
    "center": {
      "lat": 14.04838,
      "lng": 100.547664
    },
    "bbox": [
      14.028379626107625,
      100.52766384561593,
      14.068379626107625,
      100.56766384561593
    ]
  },
  {
    "id": "130304",
    "amphoe_id": "1303",
    "name_th": "ลำผักกูด",
    "name_en": "Lam Phak Kut",
    "center": {
      "lat": 14.068535,
      "lng": 100.495064
    },
    "bbox": [
      14.048534760172874,
      100.47506398337926,
      14.088534760172873,
      100.51506398337925
    ]
  },
  {
    "id": "130305",
    "amphoe_id": "1303",
    "name_th": "บึงสนั่น",
    "name_en": "Bueng Sanan",
    "center": {
      "lat": 14.065508,
      "lng": 100.572162
    },
    "bbox": [
      14.045507759936866,
      100.55216183751148,
      14.085507759936865,
      100.59216183751147
    ]
  },
  {
    "id": "130306",
    "amphoe_id": "1303",
    "name_th": "บึงน้ำรักษ์",
    "name_en": "Bueng Nam Rak",
    "center": {
      "lat": 14.01593,
      "lng": 100.498882
    },
    "bbox": [
      13.995929591370286,
      100.47888155566874,
      14.035929591370286,
      100.51888155566873
    ]
  },
  {
    "id": "130401",
    "amphoe_id": "1304",
    "name_th": "บึงบา",
    "name_en": "Bueng Ba",
    "center": {
      "lat": 14.055965,
      "lng": 100.524535
    },
    "bbox": [
      14.035964601378367,
      100.50453542820524,
      14.075964601378367,
      100.54453542820524
    ]
  },
  {
    "id": "130402",
    "amphoe_id": "1304",
    "name_th": "บึงบอน",
    "name_en": "Bueng Bon",
    "center": {
      "lat": 14.024141,
      "lng": 100.541196
    },
    "bbox": [
      14.004141389102012,
      100.52119575853106,
      14.04414138910201,
      100.56119575853106
    ]
  },
  {
    "id": "130403",
    "amphoe_id": "1304",
    "name_th": "บึงกาสาม",
    "name_en": "Bueng Ka Sam",
    "center": {
      "lat": 14.005865,
      "lng": 100.571336
    },
    "bbox": [
      13.985865013844425,
      100.55133572152312,
      14.025865013844424,
      100.59133572152311
    ]
  },
  {
    "id": "130404",
    "amphoe_id": "1304",
    "name_th": "บึงชำอ้อ",
    "name_en": "Bueng Cham-o",
    "center": {
      "lat": 13.997253,
      "lng": 100.543218
    },
    "bbox": [
      13.977252706649738,
      100.52321786954582,
      14.017252706649737,
      100.56321786954581
    ]
  },
  {
    "id": "130405",
    "amphoe_id": "1304",
    "name_th": "หนองสามวัง",
    "name_en": "Nong Sam Wang",
    "center": {
      "lat": 13.975659,
      "lng": 100.527742
    },
    "bbox": [
      13.955658704779115,
      100.50774209897033,
      13.995658704779114,
      100.54774209897032
    ]
  },
  {
    "id": "130406",
    "amphoe_id": "1304",
    "name_th": "ศาลาครุ",
    "name_en": "Sala Khru",
    "center": {
      "lat": 14.032041,
      "lng": 100.502856
    },
    "bbox": [
      14.012040727386372,
      100.48285626761349,
      14.052040727386371,
      100.52285626761348
    ]
  },
  {
    "id": "130407",
    "amphoe_id": "1304",
    "name_th": "นพรัตน์",
    "name_en": "Noppharat",
    "center": {
      "lat": 14.05127,
      "lng": 100.4982
    },
    "bbox": [
      14.031269858779579,
      100.47820005607754,
      14.071269858779578,
      100.51820005607753
    ]
  },
  {
    "id": "130501",
    "amphoe_id": "1305",
    "name_th": "ระแหง",
    "name_en": "Rahaeng",
    "center": {
      "lat": 14.021972,
      "lng": 100.52563
    },
    "bbox": [
      14.001971782953996,
      100.50562973326514,
      14.041971782953995,
      100.54562973326513
    ]
  },
  {
    "id": "130502",
    "amphoe_id": "1305",
    "name_th": "ลาดหลุมแก้ว",
    "name_en": "Lat Lum Kaeo",
    "center": {
      "lat": 14.002391,
      "lng": 100.504015
    },
    "bbox": [
      13.98239080434001,
      100.48401546221768,
      14.02239080434001,
      100.52401546221768
    ]
  },
  {
    "id": "130503",
    "amphoe_id": "1305",
    "name_th": "คูบางหลวง",
    "name_en": "Khu Bang Luang",
    "center": {
      "lat": 13.997012,
      "lng": 100.482935
    },
    "bbox": [
      13.977011621689606,
      100.46293523166801,
      14.017011621689605,
      100.502935231668
    ]
  },
  {
    "id": "130504",
    "amphoe_id": "1305",
    "name_th": "คูขวาง",
    "name_en": "Khu Khwang",
    "center": {
      "lat": 14.000311,
      "lng": 100.562648
    },
    "bbox": [
      13.980310641857466,
      100.54264774322489,
      14.020310641857465,
      100.58264774322488
    ]
  },
  {
    "id": "130505",
    "amphoe_id": "1305",
    "name_th": "คลองพระอุดม",
    "name_en": "Khlong Phra Udom",
    "center": {
      "lat": 14.065467,
      "lng": 100.567394
    },
    "bbox": [
      14.045466536533791,
      100.54739390175166,
      14.08546653653379,
      100.58739390175165
    ]
  },
  {
    "id": "130506",
    "amphoe_id": "1305",
    "name_th": "บ่อเงิน",
    "name_en": "Bo Ngoen",
    "center": {
      "lat": 13.994072,
      "lng": 100.545323
    },
    "bbox": [
      13.974072083463406,
      100.52532252894757,
      14.014072083463406,
      100.56532252894756
    ]
  },
  {
    "id": "130507",
    "amphoe_id": "1305",
    "name_th": "หน้าไม้",
    "name_en": "Na Mai",
    "center": {
      "lat": 14.012072,
      "lng": 100.516826
    },
    "bbox": [
      13.992071911922295,
      100.49682575668143,
      14.032071911922294,
      100.53682575668142
    ]
  },
  {
    "id": "130601",
    "amphoe_id": "1306",
    "name_th": "คูคต",
    "name_en": "Khu Khot",
    "center": {
      "lat": 14.068824,
      "lng": 100.512606
    },
    "bbox": [
      14.048824301264563,
      100.4926055552511,
      14.088824301264562,
      100.5326055552511
    ]
  },
  {
    "id": "130602",
    "amphoe_id": "1306",
    "name_th": "ลาดสวาย",
    "name_en": "Lat Sawai",
    "center": {
      "lat": 14.070795,
      "lng": 100.533257
    },
    "bbox": [
      14.050795169760578,
      100.51325664503398,
      14.090795169760577,
      100.55325664503397
    ]
  },
  {
    "id": "130603",
    "amphoe_id": "1306",
    "name_th": "บึงคำพร้อย",
    "name_en": "Bueng Kham Phroi",
    "center": {
      "lat": 14.060972,
      "lng": 100.536067
    },
    "bbox": [
      14.040972163770224,
      100.51606708610346,
      14.080972163770223,
      100.55606708610345
    ]
  },
  {
    "id": "130604",
    "amphoe_id": "1306",
    "name_th": "ลำลูกกา",
    "name_en": "Lam Luk Ka",
    "center": {
      "lat": 13.99558,
      "lng": 100.487465
    },
    "bbox": [
      13.975579650043803,
      100.46746466049841,
      14.015579650043803,
      100.5074646604984
    ]
  },
  {
    "id": "130605",
    "amphoe_id": "1306",
    "name_th": "บึงทองหลาง",
    "name_en": "Bueng Thonglang",
    "center": {
      "lat": 14.001714,
      "lng": 100.521919
    },
    "bbox": [
      13.981713688028526,
      100.50191863311856,
      14.021713688028525,
      100.54191863311856
    ]
  },